Unnamed: 0,Restaurant ID,Restaurant Name,Country Code,City,Address,Locality,Locality Verbose,Longitude,Latitude,Cuisines,Average Cost for two,Currency,Has Table booking,Has Online delivery,Is delivering now,Switch to order menu,Price range,Aggregate rating,Rating color,Rating text,Votes
0.0,6317637.0,Le Petit Souffle,162.0,Makati City,"Third Floor, Century City Mall, Kalayaan Avenue, Poblacion, Makati City","Century City Mall, Poblacion, Makati City","Century City Mall, Poblacion, Makati City, Makati City",121.027535,14.565443,"French, Japanese, Desserts",1100.0,Botswana Pula(P),Yes,No,No,nan,3.0,4.8,Dark Green,Excellent,314.0
1.0,5899981.320413815,Izakaya Kikufuji,162.0,Makati City,"Little Tokyo, 2277 Chino Roces Avenue, Legaspi Village, Makati City","Little Tokyo, Legaspi Village, Makati City","Little Tokyo, Legaspi Village, Makati City, Makati City",121.014101,14.553708,Japanese,1200.0,Botswana Pula(P),Yes,No,No,No,3.0,4.5,unknown,unknown,591.0
2.0,6300002.0,Heat - Edsa Shangri-La,162.0,Mandaluyong City,"Edsa Shangri-La, 1 Garden Way, Ortigas, Mandaluyong City","Edsa Shangri-La, Ortigas, Mandaluyong City","Edsa Shangri-La, Ortigas, Mandaluyong City, Mandaluyong City",121.056831,14.581404,unknown,4000.0,Botswana Pula(P),Yes,No,No,No,4.0,4.4,Green,Very Good,270.0
3.0,6318506.0,Ooma,47.68083167506139,Mandaluyong City,"Third Floor, Mega Fashion Hall, SM Megamall, Ortigas, Mandaluyong City",noise,"SM Megamall, Ortigas, Mandaluyong City, Mandaluyong City",35.99728428284533,-40.698892306705254,"Japanese, Sushi",1500.0,Botswana Pula(P),random,unknown,No,No,4.0,4.9,Dark Green,Excellent,4994.032832956791
7760.866002935315,6314302.0,Sambo Kojin,162.0,Mandaluyong City,"Third Floor, Mega Atrium, SM Megamall, Ortigas, Mandaluyong City","SM Megamall, Ortigas, Mandaluyong City","SM Megamall, Ortigas, Mandaluyong City, Mandaluyong City",121.057508,14.58445,"Japanese, Korean",1500.0,Botswana Pula(P),unknown,No,No,No,4.0,4.8,Dark Green,Excellent,229.0
5.0,18189371.0,Din Tai Fung,162.0,noise,"Ground Floor, Mega Fashion Hall, SM Megamall, Ortigas, Mandaluyong City","SM Megamall, Ortigas, Mandaluyong City","SM Megamall, Ortigas, Mandaluyong City, Mandaluyong City",-21.194822208402968,14.583764,nan,1000.0,Botswana Pula(P),random,No,No,No,3.0,4.4,Green,Very Good,336.0
6.0,6300781.0,Buffet 101,67.31946962655229,Pasay City,"Building K, SM By The Bay, Sunset Boulevard, Mall of Asia Complex (MOA), Pasay City","SM by the Bay, Mall of Asia Complex, Pasay City","SM by the Bay, Mall of Asia Complex, Pasay City, Pasay City",120.9796667,14.53133333,"Asian, European",369276.6034580123,noise,Yes,No,noise,No,4.0,4.0,Green,random,314.8568672675741
7.0,6301290.0,Vikings,126.90010085434822,noise,"Building B, By The Bay, Seaside Boulevard, Mall of Asia Complex (MOA), Pasay City","SM by the Bay, Mall of Asia Complex, Pasay City",random,120.9793333,50.39355994067202,"Seafood, Filipino, Asian, European",2000.0,Botswana Pula(P),Yes,No,unknown,No,4.0,4.2,Green,Very Good,1401.6924284171907
3488.596201978112,4650030.813653953,Spiral - Sofitel Philippine Plaza Manila,162.0,Pasay City,"Plaza Level, Sofitel Philippine Plaza Manila, CCP Complex, Pasay City",nan,"Sofitel Philippine Plaza Manila, Pasay City, Pasay City",120.98009,14.55299,random,6000.0,Botswana Pula(P),Yes,No,No,No,4.0,4.9,Dark Green,random,621.0
9.0,6314987.0,Locavore,162.0,Pasig City,"Brixton Technology Center, 10 Brixton Street, Kapitolyo, Pasig City",Kapitolyo,"Kapitolyo, Pasig City",3.3830031501488804,14.572041,Filipino,1100.0,Botswana Pula(P),Yes,random,unknown,No,3.0,4.8,Dark Green,Excellent,532.0
10.0,15387976.199259069,Silantro Fil-Mex,162.0,Pasig City,"75 East Capitol Drive, Kapitolyo, Pasig City",Kapitolyo,"Kapitolyo, Pasig City",121.057916,14.567689,"Filipino, Mexican",800.0,Botswana Pula(P),No,No,No,No,3.0,4.9,Dark Green,Excellent,1070.0
11.0,6309455.0,unknown,162.0,Pasig City,nan,Kapitolyo,"Kapitolyo, Pasig City",121.06082,13.247174713799389,"American, Ice Cream, Desserts",900.0,Botswana Pula(P),Yes,No,No,No,2.410277615614412,1.9090828743868378,Green,Very Good,488.0
12.0,6318433.0,Silantro Fil-Mex,162.0,Quezon City,"Second Floor, UP Town Center, Katipunan Avenue, Diliman, Quezon City","UP Town Center, Diliman, Quezon City","UP Town Center, Diliman, Quezon City, Quezon City",121.075419,14.649503,"Filipino, Mexican",800.0,Botswana Pula(P),No,No,No,No,3.0,3.6449051362713223,Dark Green,Excellent,294.0
13.0,6310470.0,Guevarra's,162.0,San Juan City,"387 P. Guevarra Corner Argonne Street, Addition Hills, San Juan City",Addition Hills,"Addition Hills, San Juan City",121.0335917,-11.95982895328632,Filipino,1000.0,Botswana Pula(P),Yes,No,No,No,3.0,1.108503216402311,Green,Very Good,458.0
14.0,6314605.0,Sodam Korean Restaurant,162.0,San Juan City,"17 J. Abad Santos Drive, Little Baguio, San Juan City",Little Baguio,"Little Baguio, San Juan City",121.03811,14.59889,Korean,90849.10208215585,Botswana Pula(P),No,No,No,No,3.0,4.3,random,random,223.0
15.0,18185059.0,Cafe Arabelle,162.0,nan,noise,nan,"Nuvali, Don Jose, Santa Rosa, Santa Rosa",121.05704,14.237082,noise,800.0,Botswana Pula(P),No,No,nan,No,3.0,3.6,Yellow,Good,29.0
16.0,18182702.0,Nonna's Pasta & Pizzeria,162.0,Santa Rosa,"Ground Floor, Building G, Solenad 3, Nuvali, Don Jose, Santa Rosa","Solenad 3, Don Jose, Santa Rosa","Solenad 3, Don Jose, Santa Rosa, Santa Rosa",121.0565874,14.23767897,"Italian, Pizza",710329.8631783329,unknown,No,No,No,No,3.0,4.0,Green,Very Good,72.0
17.0,6318213.0,noise,162.0,Tagaytay City,"Aguinaldo Highway, Tagaytay City",Tagaytay City,random,120.951589,14.101834,unknown,1200.0,Botswana Pula(P),Yes,No,No,No,3.0,4.154358068672818,Dark Green,Excellent,211.0
18.0,18255654.0,random,162.0,Taguig City,nan,"BGC Stopover Pavillion, Bonifacio Global City","BGC Stopover Pavillion, Bonifacio Global City, Taguig City",121.045878,4.796731488774611,unknown,600.0,Botswana Pula(P),No,No,nan,No,2.0,1.5032572749892168,Dark Green,random,2036.4863768721407
19.0,6308205.0,Wildflour Cafe + Bakery,162.0,Taguig City,"Ground Floor, Netlima Building, 4th Avenue Corner 26th Street, Bonifacio Global City, Taguig City",Bonifacio Global City,"Bonifacio Global City, Taguig City",121.04622,14.549337,"Cafe, Bakery, American, Italian",1500.0,Botswana Pula(P),Yes,No,No,No,4.0,4.4,Green,noise,392.0
20.0,6315438.0,NIU by Vikings,162.0,random,"Sixth Floor, SM Aura Premier, C5 Road Corner 26th Street, Bonifacio Global City, Taguig City","SM Aura Premier, Bonifacio Global City, Taguig City","SM Aura Premier, Bonifacio Global City, Taguig City, Taguig City",121.053725,14.545858,random,3000.0,Botswana Pula(P),noise,No,No,No,4.0,4.7,Dark Green,Excellent,10181.811853407025
850.027643719182,6310406.0,The Food Hall by Todd English,103.61841990368076,Taguig City,"Fifth Floor, SM Aura Premier, C5 Corner 26th Street, Bonifacio Global City, Taguig City","SM Aura Premier, Bonifacio Global City, Taguig City","SM Aura Premier, Bonifacio Global City, Taguig City, Taguig City",121.0534998,14.54565535,"American, Asian, Italian, Seafood",1800.0,Botswana Pula(P),Yes,No,No,No,4.0,4.5,Dark Green,random,618.0
22.0,6600681.0,Chez Michou,30.0,Brasí_lia,"SCLN, 208, Bloco A, Loja 30, Asa Norte, Brasí_lia",Asa Norte,random,-47.88178889,-15.76414167,"Fast Food, French",119675.52759684397,Brazilian Real(R$),No,No,No,No,2.0,3.0,random,Average,6.0
23.0,6601005.0,Cafí© Daniel Briand,10.907976139460423,Brasí_lia,"SCLN 104, Bloco A, Loja 26, Asa Norte, Brasí_lia",nan,"Asa Norte, Brasí_lia",-47.88266667,-15.7775,Cafe,30.0,Brazilian Real(R$),No,No,No,noise,1.0,3.8,Yellow,Good,9.0
24.0,6600292.0,unknown,30.0,Brasí_lia,"SCLN 210, Bloco D, Loja 36/48, Asa Norte, Brasí_lia",Asa Norte,random,-47.88213611,-15.75747222,noise,45.0,Brazilian Real(R$),No,No,No,No,2.0,3.1740621237523765,Yellow,Good,11.0
25.0,6600441.0,Maori,30.0,Brasí_lia,unknown,Asa Norte,"Asa Norte, Brasí_lia",-47.88816667,-15.75883333,Brazilian,60.0,noise,No,No,No,No,3.6144847562605102,3.8,Yellow,Good,11.0
26.0,6600970.0,Pizza íæ Bessa,30.0,random,"SCS 214, Bloco C, Loja 40, Asa Sul, Brasí_lia",Asa Sul,"Asa Sul, Brasí_lia",-47.91566667,-15.83116667,random,50.0,Brazilian Real(R$),No,No,No,No,2.0,3.2,random,Average,11.0
27.0,6600379.0,Sushi Loko,126.70658584122978,Brasí_lia,noise,Asa Sul,"Asa Sul, Brasí_lia",-47.91566667,-15.831,Japanese,80.0,Brazilian Real(R$),No,No,No,No,3.0,3.1,Orange,Average,10.0
28.0,6600214.0,Beirute,30.0,random,"CLS 109, Bloco A, Loja 2/6, Asa Sul, Brasí_lia",random,random,-47.9075,-15.82,Arabian,90.0,Brazilian Real(R$),No,No,No,No,3.0,3.7,nan,Good,8.0
1143.6658752334067,6601218.0,New Koto,30.0,noise,"SCS 212, Bloco B, Loja 26, Asa Sul, Brasí_lia",Asa Sul,"Asa Sul, Brasí_lia",-47.91016667,-15.82733333,Japanese,200.0,Brazilian Real(R$),noise,No,No,No,4.0,3.7,random,Good,5.0
30.0,6600060.0,nan,30.0,Brasí_lia,"Edifí_cio Josí© Severo, SCS 6, Bloco A, Loja 99, Asa Sul, Brasí_lia",Asa Sul,"Asa Sul, Brasí_lia",-10.462948413506155,-27.603998107267735,"Brazilian, Cafe",30.0,Brazilian Real(R$),No,No,No,No,1.0,0.0,White,Not rated,2.0
31.0,6600083.0,noise,169.60574661386835,Brasí_lia,"CLS 115, Bloco A, Loja 2, Asa Sul, Brasí_lia",random,"Asa Sul, Brasí_lia",-47.92366667,-15.83133333,Italian,150.0,Brazilian Real(R$),unknown,No,No,No,4.0,4.1,Green,Very Good,12.0
32.0,6601515.0,Rovereto,30.0,Brasí_lia,"Rua 13 Norte, Lote 4, íguas Claras, Brasí_lia",random,"íguas Claras, Brasí_lia",-48.019,-15.83716667,Pizza,100.0,Brazilian Real(R$),No,random,No,No,1.0012532205003595,3.1,nan,Average,9.0
33.0,6601361.0,Buena Carne,186.44569600920016,random,nan,íguas Claras,"íguas Claras, Brasí_lia",-48.01909167,-15.839775,"Bar Food, Brazilian",60.0,random,No,No,noise,No,3.0,3.6,Yellow,Good,9.0
34.0,7286981.10076075,Taco Pep,30.0,nan,"Vila Malls, Avenida das Castanheiras, Lote 1060, íguas Claras, Brasí_lia",random,"íguas Claras, Brasí_lia",-48.01666667,-15.83483333,"Mexican, Grill",100.0,nan,No,No,No,random,4.0,4.3,noise,Very Good,29.0
35.0,6601589.0,unknown,30.0,Brasí_lia,"Brasí_lia Shopping - Piso 2, SCN 5, Bloco A, Asa Norte, Brasí_lia","Brasí_lia Shopping, Asa Norte","Brasí_lia Shopping, Asa Norte, Brasí_lia",-47.889,25.210597778469833,nan,230.0,Brazilian Real(R$),No,No,No,No,4.0,4.2,Green,Very Good,17.0
5572.901473566045,6601862.0,random,30.0,Brasí_lia,"Fashion Park, Shis Ql 17, Bloco G, Loja 208, Lago Sul, Brasí_lia",unknown,"Lago Sul, Brasí_lia",-47.872359,-15.860621,"Peruvian, Latin American",100.0,Brazilian Real(R$),No,No,noise,No,4.0,3.6,Yellow,Good,5.0
8633.909044066408,6601595.0,Outback Steakhouse,179.554210150396,Brasí_lia,"ParkShopping - Piso 2, SAI/SO, írea 6580, Guaríç I, Brasí_lia","ParkShopping, Guaríç I","ParkShopping, Guaríç I, Brasí_lia",-47.95628333,-15.83451389,"American, Grill",150.0,Brazilian Real(R$),No,No,No,No,4.0,4.0,unknown,Very Good,10.0
38.0,6601158.0,Manzuíç,30.0,Brasí_lia,"Pontí£o Lago Sul, SHIS 10, Lote 9, Lago Sul, Brasí_lia","Pontí£o Lago Sul, Lago Sul","Pontí£o Lago Sul, Lago Sul, Brasí_lia",97.82750831810452,22.372022193554812,Seafood,56406.10357670264,Brazilian Real(R$),No,No,No,No,3.660542931803664,3.2,noise,Average,6.0
39.0,6600427.0,Coco Bambu,30.0,Brasí_lia,"SCES, Trecho 2, Conjunto 13/36, Setor de Clubes Esportivos Sul, Brasí_lia",Setor De Clubes Esportivos Sul,"Setor De Clubes Esportivos Sul, Brasí_lia",-47.8685,-15.819,International,389952.07866152644,Brazilian Real(R$),No,No,random,No,4.0,4.9,Dark Green,Excellent,30.0
40.0,6600116.0,Gero,30.0,noise,"Shopping Iguatemi - piso 1, SHIN CA 4, Lote A, Lago Norte, Brasí_lia",unknown,"Shopping Iguatemi, Lago Norte, Brasí_lia",-47.885812,-15.720118,Italian,350.0,Brazilian Real(R$),noise,No,No,No,4.0,3.3,unknown,Average,8.0
41.0,6601457.0,Brazilian American Burgers,30.0,Brasí_lia,"CLSN 301, Bloco C, Loja 86, Sudoeste, Brasí_lia",Sudoeste,"Sudoeste, Brasí_lia",106.08019229694611,-15.79753056,"American, Burger",45172.084735922355,random,No,No,No,No,3.198982641548607,3.6,random,Good,9.0
42.0,7303219.0,Pesqueiro Eco Gourmet,30.0,nan,"Praia da Barra da Tijuca, Avenida Lí_cio Costa, Ilha 25, Barra da Tijuca, Rio de Janeiro",Barra da Tijuca,"Barra da Tijuca, Rio de Janeiro",-43.377,-23.0115,"Seafood, Bar Food, Brazilian",140.0,Brazilian Real(R$),No,No,No,No,4.0,4.0,Green,Very Good,7.0
43.0,7304307.0,Confeitaria Colombo,30.0,Rio de Janeiro,unknown,Centro,"Centro, Rio de Janeiro",-43.178826,-22.905293,"Desserts, Cafe",100.0,random,No,No,No,No,4.0,4.0005485629481345,Dark Green,Excellent,29.0
7442.080027306428,7301215.0,Bibi,30.0,noise,"Rua Santa Clara, 36, Copabana, Rio de Janeiro",Copacabana,random,-43.18669167,5.478947648436922,"Juices, Healthy Food",60.0,Brazilian Real(R$),No,No,No,No,3.0,4.7,Dark Green,nan,2064.0459511910735
45.0,367735.7838301259,Cervantes,103.08514459190916,Rio de Janeiro,"Avenida Prado Junior, 335 B, Copacabana, Rio de Janeiro",Copacabana,"Copacabana, Rio de Janeiro",-43.17583333,-22.96216667,"Beverages, Bar Food, Fast Food",90.0,nan,noise,No,No,No,3.0,4.5,unknown,Excellent,29.0
9043.071567304974,7300612.0,random,30.0,nan,"Rua Ronald de Carvalho, 55, Copacabana, Rio de Janeiro",Copacabana,"Copacabana, Rio de Janeiro",-43.176,-18.143893212207107,Lebanese,170.0,Brazilian Real(R$),No,No,nan,No,4.0,4.2,Green,Very Good,11.0
47.0,1574041.344290759,TT Burger,30.0,Rio de Janeiro,"Galeria River, Rua Francisco Otaviano, 67, Copacabana, Rio de Janeiro","Galeria River, Copacabana","Galeria River, Copacabana, Rio de Janeiro",-43.191,-22.98683333,Burger,60.0,unknown,No,No,No,noise,3.0,4.8,Dark Green,Excellent,19.0
48.0,6204596.107806835,Braseiro da Gíçvea,30.0,Rio de Janeiro,"Praí_a Santos Dumont, 116, Gíçvea, Rio de Janeiro",random,"Gíçvea, Rio de Janeiro",-43.227042,-22.973507,"Brazilian, Bar Food",100.0,Brazilian Real(R$),noise,No,No,No,4.0,4.9,random,Excellent,40.0
3049.6210587852775,7300521.0,Balada Mix,30.0,Rio de Janeiro,"Rua Aní_bal de Mendoní_a, 37, Ipanema, Rio de Janeiro",Ipanema,unknown,-43.211425,-22.98520833,"Brazilian, Healthy Food, Juices, Pizza",90.0,Brazilian Real(R$),No,No,No,unknown,3.0,4.6,Dark Green,Excellent,21.0
50.0,7300515.0,unknown,78.44881623241008,Rio de Janeiro,"Rua Vinicius de Moraes, 49, Ipanema, Rio de Janeiro",Ipanema,"Ipanema, Rio de Janeiro",-43.203,-22.98533333,"Brazilian, Bar Food",120.0,Brazilian Real(R$),No,No,No,No,4.0,0.2974536821844727,Dark Green,Excellent,2458.9091139102984
51.0,3431042.6082722824,Zazíç BistríÇ Tropical,30.0,Rio de Janeiro,"Rua Joana Angí©lica, 40, Ipanema, Rio de Janeiro",Ipanema,unknown,-43.20520833,19.176022700110074,random,170.0,Brazilian Real(R$),No,No,No,random,3.417661898381221,4.6,Dark Green,nan,21.0
52.0,7301064.0,random,30.0,Rio de Janeiro,"Rua Jardim Botí¢nico, 731, Jardim Botí¢nico, Lagoa, Rio de Janeiro",Lagoa,random,-43.219563,-22.966647,Brazilian,90.0,Brazilian Real(R$),No,random,No,No,3.0,4.3,Green,Very Good,14.0
53.0,7304312.0,noise,30.0,Rio de Janeiro,"Le Monde, Bloco 3, Lojas A/B, Avenida das Amí©ricas, 3500, Barra da Tijuca, Rio de Janeiro","Le Monde, Barra da Tijuca","Le Monde, Barra da Tijuca, Rio de Janeiro",-43.34879167,-22.99991111,Italian,483545.9529338665,random,No,No,No,No,4.0,4.0,nan,Very Good,5.0
674.9277441776618,7300004.0,Sushi Leblon,30.0,random,nan,Leblon,"Leblon, Rio de Janeiro",-43.227,-22.98416667,Japanese,288960.3218600674,Brazilian Real(R$),No,No,No,No,4.0,4.6,Dark Green,Excellent,25.0
55.0,7300868.0,Talho Capixaba,46.577669280338284,Rio de Janeiro,"Avenida Ataulfo de Paiva, 1022, Lojas A e B, Leblon, Rio de Janeiro",Leblon,"Leblon, Rio de Janeiro",-43.22566667,-22.98516667,random,120.0,noise,No,No,nan,nan,4.0,4.4,Green,Very Good,13.0
56.0,7302637.0,unknown,30.0,Rio de Janeiro,"Rua Gustavo Sampaio, 798, Leme, Rio de Janeiro",noise,"Leme, Rio de Janeiro",-43.17279167,-22.963925,Brazilian,40.0,Brazilian Real(R$),No,No,No,No,2.0,4.2,Green,Very Good,7.0
57.0,7302140.0,Shirley,30.0,Rio de Janeiro,random,noise,"Leme, Rio de Janeiro",-43.17126389,-22.96337222,"Brazilian, Seafood",250.0,Brazilian Real(R$),No,No,No,No,4.0,4.2,Green,nan,8.0
58.0,5733041.938115747,Quiosque Chopp Brahma,30.0,unknown,"Madureira Shopping - Loja 289/290, Piso 2, Estrada do Portela, 222, Madureira, Rio de Janeiro, RJ",Madureira,"Madureira, Rio de Janeiro",-43.341164,-22.870413,"Bar Food, Brazilian",70.0,Brazilian Real(R$),No,No,No,No,1.2760131018495833,0.0,White,Not rated,1.0
2657.830794456795,7302898.0,Aprazí_vel,30.0,Rio de Janeiro,"Rua Aprazí_vel, 62, Santa Teresa, Rio de Janeiro",Santa Teresa,"Santa Teresa, Rio de Janeiro",-43.18736944,-4.651728534986582,Brazilian,542476.6374350642,Brazilian Real(R$),No,No,No,No,4.0,3.776859614224445,Dark Green,Excellent,44.0
60.0,7302859.0,Aconchego Carioca,138.0702611907973,Rio de Janeiro,"Rua Barí£o de Iguatemi, 379, Tijuca, Rio de Janeiro",Tijuca,"Tijuca, Rio de Janeiro",-43.21551111,-22.91370833,"Brazilian, Bar Food",85.0,Brazilian Real(R$),No,No,No,noise,3.0,0.016004035817272035,Dark Green,unknown,24.0
61.0,7301700.0,Garota de Ipanema,30.0,Rio de Janeiro,"Avenida Joí£o Alves, 56, Urca, Rio de Janeiro",Urca,"Urca, Rio de Janeiro",-43.16266667,-1.5813217680295963,"Brazilian, Bar Food",80.0,Brazilian Real(R$),No,No,No,No,3.0,4.3,Green,Very Good,10.0
62.0,6706313.0,Cantina Famiglia Mancini,30.0,Sí£o Paulo,"Rua Avanhandava, 81, Bela Vista, Sí£o Paulo 10000","Bela Vista, Centro","Bela Vista, Centro, Sí£o Paulo",-60.88670891777291,-23.55066667,"Italian, Pizza",250.0,Brazilian Real(R$),No,No,No,random,4.0,1.478882675932681,Dark Green,random,49.0
63.0,6704326.0,Templo da Carne - Marcos Bassi,30.0,Sí£o Paulo,"Rua Treze de Maio, 668, Bela Vista, Sí£o Paulo 01327000",noise,"Bela Vista, Centro, Sí£o Paulo",-46.64633333,-23.559,noise,250.0,Brazilian Real(R$),No,No,No,No,2.738159130030114,4.4,Green,Very Good,6839.561076428039
8211.429008900664,6711179.0,Gopala Hari,30.0,Sí£o Paulo,nan,Consolaí_í£o,"Consolaí_í£o, Sí£o Paulo",-46.65866667,11.548121581399592,Indian,70.0,unknown,random,No,No,No,3.0,3.1,unknown,Average,9629.816386105294
6069.341848744236,6702797.0,Jiquitaia,30.0,noise,"Rua AntíÇnio Carlos, 268, Consolaí_í£o, Sí£o Paulo",random,"Consolaí_í£o, Sí£o Paulo",-46.657523,-4.003776495902613,Brazilian,100.0,Brazilian Real(R$),No,No,nan,No,4.0,4.1,unknown,Very Good,15.0
66.0,6700475.0,Skye - Hotel Unique,188.1847192212298,Sí£o Paulo,"Hotel Unique, Avenida Brigadeiro Luí_s AntíÇnio, 4700, Jardim Paulista, Sí£o Paulo",random,"Hotel Unique, Jardim Paulista, Sí£o Paulo",-46.666851,-23.581688,"Beverages, International",300.0,Brazilian Real(R$),No,No,No,No,4.0,2.142194438161914,Dark Green,Excellent,59.0
1358.2424813820496,6713413.0,Les 3 Brasseurs,181.22080088521926,Sí£o Paulo,"Rua Jesuí_no Arruda, 470, Itaim Bibi, Sí£o Paulo",Itaim Bibi,"Itaim Bibi, Sí£o Paulo",-46.67511,-23.582135,noise,747757.2540460647,noise,nan,No,No,No,4.0,1.8415504066515263,Dark Green,Excellent,30.0
68.0,7521872.816343235,Red Steak & Burger,30.0,Sí£o Paulo,"Rua Tabapuí£, 1417, Itaim Bibi, Sí£o Paulo",Itaim Bibi,"Itaim Bibi, Sí£o Paulo",-46.683888,-23.585324,"Brazilian, Grill",75.0,noise,No,No,random,No,3.0,3.9,Yellow,nan,5.0
69.0,17966213.623292316,Cantinho da Gula,30.0,Sí£o Paulo,"Rua Pedroso Alvarenga, 522, Itaim Bibi, Sí£o Paulo, SP",noise,"Itaim Bibi, Sí£o Paulo",-46.67566667,-12.928838056831971,Brazilian,55.0,Brazilian Real(R$),No,No,No,nan,2.0,0.0,White,Not rated,0.0
70.0,6700402.0,Paris 6 Classique,131.13169720784904,Sí£o Paulo,"Rua Haddock Lobo, 1240, Cerqueira Cí©sar, Jardim Paulista, Sí£o Paulo",Jardim Paulista,"Jardim Paulista, Sí£o Paulo",-46.666041,-23.561568,French,619496.2160956658,Brazilian Real(R$),No,No,No,unknown,4.0,3.4,Orange,Average,73.0
71.0,6700846.0,Kawa Sushi,30.0,Sí£o Paulo,"Alameda Lorena, 300, Jardim Paulista, Sí£o Paulo",Jardim Paulista,"Jardim Paulista, Sí£o Paulo",-46.657418,-23.571638,"Sushi, Japanese",120.0,Brazilian Real(R$),No,No,No,random,3.8857508180922373,3.5,Yellow,Good,9.0
72.0,6702159.0,A Figueira Rubaiyat,30.0,Sí£o Paulo,"Rua Haddock Lobo, 1738, Cerqueira Cí©sar, Jardim Paulista, Sí£o Paulo 10000",Jardim Paulista,random,-46.66983333,-23.5655,noise,300.0,Brazilian Real(R$),nan,No,No,No,4.0,4.3,Green,Very Good,39.0
73.0,12912318.447146496,Kinoshita,30.0,random,"Rua Jacques Fí©lix, 405, Vila Nova Conceií_í£o, Moema, Sí£o Paulo",Moema,unknown,-46.67133333,-39.86811553602498,Sushi,230.0,Brazilian Real(R$),No,No,noise,No,4.0,3.9,Yellow,Good,12.0
74.0,9939005.57937633,nan,30.0,nan,"Rua dos Pinheiros, 320, Pinheiros, Sí£o Paulo",Pinheiros,"Pinheiros, Sí£o Paulo",97.9351819415188,-34.44569788840626,"Gourmet Fast Food, Burger",120.0,Brazilian Real(R$),No,noise,No,No,4.0,4.3,Green,Very Good,68.0
75.0,5399188.36747591,random,30.0,Sí£o Paulo,"Praí_a Dom Josí© Gaspar, 42, Repí_blica, Sí£o Paulo 10000",Repí_blica,"Repí_blica, Sí£o Paulo",-46.64159444,-23.54664167,"Brazilian, Italian",150.0,unknown,No,No,No,No,4.0,4.3,Green,Very Good,46.0
76.0,6705858.0,random,30.0,Sí£o Paulo,unknown,Repí_blica,"Repí_blica, Sí£o Paulo",-46.643425,-23.545163,Italian,400.0,unknown,No,No,No,random,4.0,4.4,Green,Very Good,37.0
77.0,6701419.0,unknown,194.47782430327956,Sí£o Paulo,unknown,"Shopping MetríÇ Santa Cruz, Vila Mariana","Shopping MetríÇ Santa Cruz, Vila Mariana, Sí£o Paulo",-46.63716667,-23.5995,"Brazilian, Mineira",65.0,Brazilian Real(R$),No,No,No,No,3.0,0.0,random,Not rated,2.0
78.0,6703956.0,Super Grill,30.0,Sí£o Paulo,"Shopping Morumbi - Piso Lazer, Avenida Roque Petroni Jí_nior, 1089, Santo Amaro, Sí£o Paulo",unknown,"Shopping Morumbi, Santo Amaro, Sí£o Paulo",-46.698574,-30.688430875202144,Brazilian,50.0,Brazilian Real(R$),No,No,No,No,2.0,0.0,White,Not rated,237.1522619181602
1467.6462111231162,6709580.0,Esquina Mocotí_,30.0,unknown,noise,Vila Maria,"Vila Maria, Sí£o Paulo",-46.581672,-23.486535,unknown,3839.215336238144,Brazilian Real(R$),No,No,No,random,4.0,4.875699787865925,Green,Very Good,22.0
80.0,6703176.0,Veloso,30.0,Sí£o Paulo,"Rua Conceií_í£o Veloso, 56, Vila Mariana, Sí£o Paulo",Vila Mariana,"Vila Mariana, Sí£o Paulo",-46.63566667,-23.58516667,"Brazilian, Bar Food, Beverages",70.0,Brazilian Real(R$),unknown,nan,No,No,3.0,4.6,Dark Green,Excellent,58.0
81.0,6713772.0,Sainte Marie Gastronomia,30.0,Sí£o Paulo,"Rua Dom Joí£o Batista da Costa, 70, Vila SíÇnia, Sí£o Paulo",Vila SíÇnia,"Vila SíÇnia, Sí£o Paulo",-46.746958,-23.609207,"Lebanese, Arabian",120.0,Brazilian Real(R$),No,noise,No,No,4.0,4.1,nan,Very Good,11.0
441.9510395203522,17284404.0,Austin's BBQ and Oyster Bar,216.0,noise,"2820 Meredyth Dr, Albany, GA 31707",Albany,"Albany, Albany",-84.221535,-0.9948988410616622,"BBQ, Burger, Seafood",25.0,Dollar($),No,No,No,No,2.0,3.3,nan,Average,35.0
83.0,8132250.128390085,BJ's Country Buffet,216.0,random,"2401 Dawson Rd, Albany, GA 31707",Albany,"Albany, Albany",-84.207095,31.608743,"American, BBQ",10.0,Dollar($),No,No,No,No,1.0,3.3,Orange,Average,3275.870873466124
84.0,17284105.0,Cookie Shoppe,216.0,Albany,nan,Albany,noise,-84.154,31.5772,,0.0,Dollar($),unknown,No,No,No,1.0,3.4,Orange,Average,34.0
85.0,9658021.883290373,El Vaquero Mexican Restaurant,216.0,Albany,"2700 Dawson Rd, Albany, GA 31707",Albany,"Albany, Albany",-84.2194,31.6158,unknown,0.0,Dollar($),No,No,nan,No,1.0,3.4,Orange,Average,45.0
86.0,17284397.0,Elements Coffee Co - Northwest,216.0,Albany,"2726 Ledo Rd Ste 10, Albany, GA 31707",Albany,"Albany, Albany",-84.206944,31.622412,noise,206123.51891091984,Dollar($),No,No,No,No,1.0,3.4,Orange,random,26.0
87.0,17284211.0,Pearly's Famous Country Cookng,216.0,Albany,unknown,Albany,"Albany, Albany",-84.1759,31.5882,,0.0,Dollar($),No,No,random,random,1.0,2.973444562959525,Orange,Average,6909.809454199144
88.0,2995005.346014141,Chick-fil-A,216.0,Albany,"2703 Dawson Rd, Albany, GA 31707",Albany,"Albany, Albany",-84.2193,31.616,Fast Food,450338.06508288975,Dollar($),No,No,random,unknown,3.30504421870972,3.5,Yellow,Good,67.0
89.0,7568758.781630823,Guang Zhou Chinese Restaurant,216.0,Albany,"1214 N Westover Blvd, Albany, GA 31707",Albany,"Albany, Albany",-84.2091458,31.6155186,"Asian, Chinese, Vegetarian",10.0,Dollar($),No,unknown,No,No,1.0,3.9,Yellow,Good,141.0
90.0,17284139.0,Harvest Moon,216.0,Albany,unknown,Albany,random,-14.014228930304114,31.604905,"Pizza, Bar Food, Sandwich",643878.9455456679,Dollar($),No,No,No,No,3.311401455461596,3.7,Yellow,Good,147.0
91.0,17284403.0,nan,216.0,Albany,"629 N. Westover Blvd, Albany, GA 31707",Albany,"Albany, Albany",-84.223278,31.612121,"Steak, Tapas, Bar Food",70.0,Dollar($),No,noise,No,No,4.0,3.5,Yellow,Good,51.0
92.0,793824.6879104262,noise,216.0,Albany,"2700 Dawson Rd, Albany, GA 31707",Albany,"Albany, Albany",-84.2191,31.6156,"Chinese, Seafood, Vegetarian",25.0,Dollar($),No,No,nan,No,2.0,2.6718772887281736,Yellow,noise,5145.540101354852
6524.79110612354,17284150.0,House of China Restaurant II,191.43688643603818,random,"2526 Dawson Rd Ste A, Albany, GA 31707",Albany,"Albany, Albany",99.48232492664044,31.6104,Chinese,10.0,Dollar($),No,No,No,No,1.0,0.17656762497425985,Yellow,random,153.0
94.0,17284158.0,Jimmie's Hot Dogs,90.00259649766124,Albany,"204 S Jackson St, Albany, GA 31701",Albany,"Albany, Albany",-84.1534,31.5751,random,10.0,nan,noise,No,No,No,1.0,3.9,Yellow,Good,160.0
95.0,17284175.0,Locos Grill & Pub,216.0,Albany,"547 N Westover Blvd, Albany, GA 31707",Albany,"Albany, Albany",-36.074197208465165,31.6077,"American, Burger, Sandwich",213991.45980720106,Dollar($),No,No,random,nan,2.2851916472748126,3.5,Yellow,Good,183.62403727306906
8485.822288430503,17284179.0,Longhorn Steakhouse,216.0,noise,"2733 Dawson Rd, Albany, GA 31707",Albany,"Albany, Albany",-84.2229,31.6185,"American, Steak",25.0,unknown,No,No,No,No,2.0,2.30380329625285,Yellow,Good,58.0
97.0,17284197.0,Mikata Japanese Steakhouse,216.0,Albany,"2610 Dawson Rd, Albany, GA 31707",Albany,"Albany, Albany",-84.2164,31.6137,"Japanese, Steak, Sushi",40.0,Dollar($),No,No,noise,No,3.0,2.2710649119875153,unknown,Good,115.0
2128.8765174171835,17284241.0,Shogun Japanese Steak House,216.0,Albany,"629 N Westover Blvd, Albany, GA 31707",Albany,"Albany, Albany",-84.2233,31.6118,noise,635742.3826136516,Dollar($),No,No,No,No,3.0,1.7826296366177456,Yellow,Good,51.0
9241.33129708842,17284390.0,The Catch Seafood Room & Oyster Bar,216.0,random,nan,Albany,"Albany, Albany",34.02773886976925,31.605882,noise,257694.16936023513,Dollar($),No,No,No,No,3.0,3.4577785248613697,Yellow,Good,250.0
100.0,17284279.0,Villa Gargano,216.0,Albany,unknown,unknown,"Albany, Albany",-84.1757,31.5985,"Italian, Pizza",10.0,Dollar($),No,No,No,No,1.0,3.7,unknown,Good,117.0
101.0,17284364.0,3 Squares Diner,216.0,Albany,"202 W Franklin St, Sylvester, GA 31791",nan,"Sylvester, Albany",-83.8389,31.5308,nan,10.0,Dollar($),No,unknown,No,nan,1.0,3.4,Orange,Average,20.0
102.0,16611114.0,Whitebull Hotel,14.0,Armidale,"117 Marsh St, Armidale, NSW",Armidale,"Armidale, Armidale",154.41704371516477,14.062245138680545,"Bar Food, Steak",156402.4590334796,Dollar($),No,No,No,No,2.0,3.5,Yellow,nan,25.0
103.0,17293281.0,Last Resort Grill,156.88597224575483,Athens,"184 W Clayton St, Athens, GA 30601",Athens,"Athens, Athens",-83.378273,17.772513312349695,"American, Southern, Southwestern",40.0,Dollar($),No,No,No,unknown,3.0,4.5,Dark Green,unknown,1821.0
104.0,13629053.890287822,Mama's Boy Restaurant,216.0,Athens,"197 Oak St, GA 30601",Athens,"Athens, Athens",-83.3654,33.9535,Southern,10.0,Dollar($),nan,No,random,No,1.0,3.481964890531142,Dark Green,Excellent,9420.823309671747
105.0,17293409.0,Sr. Sol 1,67.58611920975775,unknown,random,Athens,unknown,-83.4293,33.9652,Mexican,10.0,unknown,No,No,No,No,1.0,4.6,Dark Green,Excellent,917.0
106.0,17293163.0,Choo Choo Eastside,216.0,Athens,"1055 Gaines School Rd Ste 100, Athens, GA 30605",noise,nan,-83.3389,33.9259,"Japanese, Korean",10.0,Dollar($),No,No,No,No,1.0,3.9350505772002076,nan,Good,7571.304747156975
107.0,17293228.0,The Grill,216.0,Athens,"171 College Ave, Athens, GA 30601",Athens,"Athens, Athens",-83.375523,33.958198,"Breakfast, Burger, Sandwich",10.0,nan,No,No,nan,No,1.0,3.7,Yellow,Good,289.0
108.0,17293880.0,Big City Bread Cafe,216.0,Athens,"393 N Finley St, Athens, GA 30601",Athens,"Athens, Athens",-83.384004,33.959392,"Breakfast, Sandwich",246165.82955074176,noise,No,No,No,No,1.0,4.3,Green,Very Good,8627.87191682703
109.0,17293169.0,Clocked,184.6328427818666,nan,"259 W Washington St, Athens, GA 30601",Athens,"Athens, Athens",-83.3797,33.9584,"American, Burger, Sandwich",10.0,Dollar($),No,No,No,No,1.0,4.2,nan,Very Good,613.0
110.0,4946837.740265498,DePalma's Italian Cafe - Downtown,216.0,Athens,"401 E Broad St, Athens, GA 30601",Athens,"Athens, Athens",-83.373596,33.958112,"American, Italian, Pizza",25.0,noise,nan,No,No,No,2.0,4.0,Green,Very Good,353.0
111.0,17293180.0,DePalma's Italian Cafe - East Side,216.0,Athens,"1965 Barnett Shoals Rd, Athens, GA 30605",Athens,"Athens, Athens",-83.33995,33.924275,"American, Italian, Pizza",25.0,Dollar($),No,No,random,No,3.108400102018896,4.1,Green,Very Good,387.0
112.0,17293205.0,Five & Ten,216.0,Athens,"1073 South Milledge Ave, Athens, GA 30605",Athens,"Athens, Athens",-83.3872482,26.443575289356346,American,40.0,Dollar($),No,No,nan,noise,3.0,4.3,unknown,Very Good,2483.113717949705
113.0,10920817.695893837,Grit,179.09651964590233,Athens,noise,Athens,"Athens, Athens",-83.381625,33.960112,"International, Southern, Vegetarian",10.0,Dollar($),noise,No,No,No,1.0,2.6831738233268174,Green,Very Good,800.0
114.0,17293897.0,Ike & Jane,216.0,Athens,"1307 Prince Ave, Athens, GA 30606",Athens,"Athens, Athens",-83.400887,33.963296,Sandwich,10.0,Dollar($),No,random,No,No,1.0,4.1,Green,unknown,350.0
115.0,7267968.184288531,La Dolce Vita Ristorante,216.0,Athens,"323 E Broad St, Athens, GA 30601",Athens,"Athens, Athens",-83.4075,33.9584,unknown,40.0,Dollar($),No,nan,nan,No,3.768184349450266,4.1,Green,nan,464.0
116.0,17293870.0,Shokitini,216.0,Athens,"251 W Clayton St, Athens, GA 30601",Athens,"Athens, Athens",38.14364396260322,33.957503,"Asian, Japanese, Sushi",25.0,Dollar($),No,No,No,No,2.0,4.2,Green,Very Good,550.0
117.0,17293877.0,Taqueria Del Sol,216.0,Athens,"334 Prince Ave, Athens, GA 30601",Athens,nan,27.73972870225583,33.960571,"Mexican, Spanish",256659.90214988872,Dollar($),noise,No,unknown,No,1.0,4.1,Green,Very Good,543.0
118.0,17293890.0,The National,216.0,Athens,unknown,Athens,"Athens, Athens",-83.37967,33.959468,"International, Southern",739709.2042670618,Dollar($),unknown,No,No,No,3.0,4.1,Green,Very Good,465.0
9277.541484359848,17293915.0,The Royal Peasant,216.0,Athens,"1675 S. Lumpkin St., Athens, GA 30606",Athens,"Athens, Athens",-83.38728,33.937502,Bar Food,10.0,noise,No,noise,noise,No,1.0,4.4,Green,Very Good,1571.9236548245146
120.0,17293422.0,Transmetropolitan,216.0,Athens,"145 E Clayton St, Athens, GA 30601",Athens,"Athens, Athens",-83.3764,-6.909767667883607,"Italian, Pizza, Sandwich",172036.57214129216,nan,No,No,No,No,1.0,4.4,Green,Very Good,1098.0
5930.606848262947,17293873.0,Trappeze Pub,216.0,Athens,"269 N Hull St, Athens, GA 30601",Athens,"Athens, Athens",-83.378881,33.958363,"Burger, Bar Food",25.0,Dollar($),No,No,noise,No,2.0,4.2,Green,Very Good,579.0
122.0,17294014.0,Viva! Argentine Cuisine,216.0,nan,"247 Prince Ave, Athens, GA 30601",Athens,"Athens, Athens",-83.3828224,33.9600227,"Desserts, Latin American, Argentine",10.0,Dollar($),No,No,No,No,1.0,0.3574646208902377,Green,Very Good,374.0
9521.811291261067,17294556.0,Miyabi Kyoto Japanese Steak House,216.0,Augusta,"1315 Augusta West Pkwy, Augusta, GA 30909",Augusta,"Augusta, Augusta",-82.0865,33.4721,"Chinese, Steak",40.0,random,No,noise,noise,No,3.0,4.6,random,Excellent,9571.461704210962
8395.938374321364,17294607.0,Rae's Coastal Cafe,216.0,Augusta,"3208 W Wimbledon Dr, Augusta, GA 30909",Augusta,"Augusta, Augusta",-82.0698,-20.49879998559032,"American, Caribbean, Seafood",40.0,Dollar($),No,No,unknown,No,3.0,4.9,Dark Green,Excellent,1829.6327002735115
125.0,17294279.0,The Bee's Knees,216.0,noise,unknown,Augusta,"Augusta, Augusta",-81.97,33.4765,"International, Tapas, Vegetarian",25.0,Dollar($),No,unknown,No,No,2.0,4.5,Dark Green,Excellent,631.0
126.0,3900251.870906934,Boll Weevil Cafe,216.0,Augusta,"10 9th St, Augusta, GA 30901",Augusta,"Augusta, Augusta",-81.9684,33.474,"Desserts, Sandwich, Southern",10.0,Dollar($),random,unknown,No,No,1.0,3.9,Yellow,Good,372.0
127.0,17295215.0,Farmhaus Burger,49.57263415818326,Augusta,"1204 Broad St, Augusta, GA 30901",nan,"Augusta, Augusta",-81.973006,33.477444,"American, Burger",25.0,Dollar($),nan,No,No,No,2.0,3.790545792832925,Yellow,Good,201.0
128.0,17295028.0,Manuel's Bread Cafe,216.0,Augusta,"505 Railroad Ave, North Augusta, GA 29841",Augusta,"Augusta, Augusta",-81.965571,33.481779,"Breakfast, French",40.0,Dollar($),No,No,No,noise,1.101990490942748,2.280098182360538,Yellow,noise,332.0
889.2243539172285,17294642.0,random,216.0,Augusta,"2250 Sconyers Way, Augusta, GA 30906",Augusta,"Augusta, Augusta",-82.0327,33.4086,BBQ,25.0,Dollar($),noise,random,No,unknown,2.8628624334771873,0.8558163224602698,Yellow,Good,304.0
130.0,17295109.0,Frog Hollow Tavern,216.0,random,"1282 broad street, Augusta, GA 30901",Augusta,random,161.01353913749114,33.478231,American,311203.9606311997,Dollar($),No,No,No,random,3.0,4.3,noise,Very Good,368.0
131.0,17294441.0,Giuseppe's Pizza & Italian Specialities,216.0,Augusta,"3690 Wheeler Rd, Augusta, GA 30909",Augusta,"Augusta, Augusta",-112.90001799297539,-38.42721689577974,noise,25.0,Dollar($),No,No,No,No,2.0,4.1,random,Very Good,430.0
5203.789114530772,17294552.0,Mellow Mushroom,41.19910456174162,Augusta,"1167 Broad St, Augusta, GA 30901",Augusta,random,-81.9721,33.4778,"Italian, Pizza, Sandwich",25.0,Dollar($),No,No,No,No,2.0,4.4,Green,Very Good,433.0
133.0,17294565.0,Nacho Mamas Burritos,213.11966066292493,Augusta,"976 Broad St, Augusta, GA 30901",Augusta,"Augusta, Augusta",-81.9694,33.4764,Mexican,10.0,Dollar($),No,unknown,No,No,1.0,4.0,Green,Very Good,380.0
134.0,17294623.0,noise,164.98431144158482,Augusta,"3051 Washington Rd, Augusta, GA 30907",Augusta,"Augusta, Augusta",-47.95757870442307,48.34361574579043,nan,25.0,Dollar($),No,No,No,No,2.0,4.0,Green,Very Good,456.0
135.0,17294712.0,Takosushi,187.28483037099863,Augusta,unknown,Augusta,"Augusta, Augusta",-82.0301,36.92904262819333,"Mexican, Southwestern, Sushi",40.0,Dollar($),No,No,No,No,2.2087339773719687,3.32999226335774,Green,Very Good,647.0
136.0,17295033.0,The Chop House,216.0,Augusta,"Augusta Mall, Augusta, GA 30909",Augusta,"Augusta, Augusta",-82.080788,33.467201,Steak,40.0,Dollar($),No,No,No,No,3.0,4.0,nan,Very Good,360.0
7450.1183448070105,17295069.0,The Taj of India,216.0,Augusta,unknown,Augusta,"Augusta, Augusta",144.3420962136463,33.5375868,Indian,25.0,Dollar($),No,No,No,No,2.0,4.0,Green,Very Good,227.0
138.0,400133.33488846495,Augsburg Haus,216.0,Augusta,"4460 Washington Road, Evans, GA 30809",Evans,"Evans, Augusta",-138.8201860949361,33.544342,random,25.0,random,No,No,No,No,2.0,3.9,Yellow,noise,290.0
139.0,17295115.0,Pho Bac,216.0,Augusta,"4300 Towne Centre, Evans, GA 30809",Evans,unknown,-82.126161,33.532249,Vietnamese,10.0,Dollar($),nan,No,No,No,1.0,4.886653553472675,noise,Very Good,270.0
709.9868418923899,8239703.375312663,Rhinehart's Oyster Bar,216.0,Augusta,"303 North Bel Air Rd, Evans, GA 30809",noise,noise,-82.141284,33.521291,"Burger, Seafood",25.0,Dollar($),No,No,No,No,2.0,4.191391912907503,Green,Very Good,326.0
141.0,4705708.095666766,Thai Kitchen,216.0,Augusta,"4357 Washington Road, Evans, GA 30809",Evans,"Evans, Augusta",-110.5793287303988,33.5406,Thai,35.0,Dollar($),random,No,No,No,3.0,4.3,Green,Very Good,317.0
142.0,17294883.0,El Kiosco Mexican Restaurant,216.0,Augusta,"5174 Wrightsboro Rd, Grovetown, GA 30813",Grovetown,"Grovetown, Augusta",-82.1997,33.4574,Mexican,10.0,Dollar($),No,No,No,No,1.0,4.2,Green,noise,300.0
143.0,16608864.0,unknown,14.0,Balingup,"63 South Western Hwy, Balingup, WA",Balingup,"Balingup, Balingup",115.9844924,21.116742452329937,nan,20.0,Dollar($),No,No,nan,random,2.0,3.2,Orange,Average,21.0
144.0,16604911.0,unknown,14.0,nan,"Old Coach House 50 Ford St, Beechworth, Beechworth, VIC",Beechworth,"Beechworth, Beechworth",146.685852,-36.360439,"Pizza, Bar Food",20.0,Dollar($),nan,No,No,No,2.0,4.6,random,random,237.0
145.0,17303465.0,Bardenay,216.0,Boise,"610 W Grove St, Boise, ID 83702",unknown,"Boise, Boise",-77.77057197562816,43.6138,random,141766.8188778574,Dollar($),No,No,unknown,No,3.9306324696497934,4.5,Dark Green,Excellent,879.0
1094.0467056678874,17303642.0,Flatbread Neapolitan Pizzeria,216.0,noise,nan,Boise,"Boise, Boise",-116.203466,43.616068,"Italian, Pizza",25.0,Dollar($),No,No,No,No,2.0,4.6,Dark Green,Excellent,615.0
147.0,2639296.559212261,Goldy's Breakfast Bistro,101.24145297332018,Boise,"108 S Capitol Blvd, Boise, ID 83702",random,unknown,-116.2023,43.6149,random,25.0,Dollar($),No,No,No,No,2.0,1.3360353936646339,Dark Green,Excellent,879.0
148.0,17303545.0,Chandlers Steakhouse,216.0,Boise,noise,Boise,"Boise, Boise",-116.2064,43.6157,"American, Seafood, Steak",377580.826281876,Dollar($),unknown,noise,unknown,No,4.0,2.1535097711253153,Yellow,Good,379.0
149.0,7656738.349592154,unknown,216.0,Boise,"202 S Capitol Blvd, Boise, ID 83702",Boise,"Boise, Boise",-16.75191021094045,43.614,"European, Spanish",13250.670852158653,Dollar($),No,No,No,No,1.4748209721674632,4.3,Green,noise,303.0
150.0,14759114.11546143,Barbacoa Restaurant,216.0,Boise,"276 Bobwhite Ct, Boise, ID 83706",Boise,"Boise, Boise",-116.185034,22.812484205105108,"Latin American, Steak",70.0,Dollar($),unknown,No,nan,No,4.0,4.1,Green,Very Good,538.0
151.0,17303478.0,nan,216.0,Boise,"1289 Protest Rd, Boise, ID 83706",Boise,"Boise, Boise",-116.2062,43.5945,"American, Burger, Sandwich",10.0,Dollar($),No,No,No,No,1.0,0.4651277886388292,Green,Very Good,334.0
152.0,17303480.0,Bittercreek Ale House,216.0,Boise,"246 N 8th St, Boise, ID 83702",Boise,"Boise, Boise",29.150704557382397,43.6167,noise,25.0,Dollar($),No,No,No,No,2.0,4.3,Green,Very Good,555.0
153.0,17304733.0,Boise Fry Company,216.0,Boise,"204 N Capitol Blvd, Boise, ID 83702",noise,"Boise, Boise",-115.92697369052716,43.610279,"American, Burger",438930.0782857525,Dollar($),No,No,No,No,1.0,4.4,unknown,Very Good,823.0
154.0,17303646.0,random,216.0,Boise,"6508 W Fairview Ave, Boise, ID 83704",nan,"Boise, Boise",-116.2625,43.6192,Pizza,25.0,Dollar($),No,nan,No,No,2.0,4.381765526053369,Green,Very Good,550.0
155.0,17304929.0,Fork,216.0,noise,"199 N 8th St, Boise, ID 83702",Boise,"Boise, Boise",-116.202845,43.616295,"American, Burger",233899.77055863032,Dollar($),No,No,No,No,2.0,4.4,random,nan,650.0
156.0,17303684.0,Guido's Original New York Style Pizza,216.0,Boise,"235 N 5th St, Boise, ID 83702",Boise,"Boise, Boise",-116.199,7.203999355475283,Pizza,3053.5157071298613,Dollar($),No,No,No,nan,1.0,4.3,Green,Very Good,410.0
6920.0536763845,17303772.0,Los Beto's,216.0,Boise,"5220 W Fairview Ave, Boise, ID 83706",Boise,"Boise, Boise",-116.2463,43.6191,Mexican,10.0,Dollar($),No,nan,No,No,1.0,4.4,Green,Very Good,660.0
158.0,16016127.854325071,Lucianos Italian Restaurant,216.0,Boise,"11 N Orchard St, Boise, ID 83706",Boise,"Boise, Boise",59.40946633268655,43.6051379,"Italian, Seafood, Vegetarian",25.0,nan,noise,No,No,No,2.0,4.4,Green,Very Good,360.0
159.0,4831022.085284381,Mai Thai Restaurant,55.67200245895748,Boise,"750 W Idaho St, Boise, ID 83702",Boise,"Boise, Boise",-116.2021,43.6162,"Sushi, Thai",40.0,Dollar($),No,No,No,No,3.0,4.0,random,nan,340.0
160.0,10244435.040573807,Shige Japanese Cuisine,216.0,Boise,"100 N 8th St, Boise, ID 83702",Boise,"Boise, Boise",-116.2031,43.6156,"Japanese, Sushi, Teriyaki",159890.8673921196,unknown,No,No,No,No,2.0,0.2964433113114223,Green,Very Good,393.0
6606.969393293901,17304741.0,The Egg Factory,216.0,Boise,"8061 W Fairview Ave, Boise, ID 83704",Boise,"Boise, Boise",68.32121813346933,46.44849828319188,Breakfast,659384.2143682892,Dollar($),No,No,No,No,1.0,4.3,Green,Very Good,422.0
162.0,207371.32283840247,Tucanos,216.0,Boise,"1388 S Entertainment Ave, Boise, ID 83709",Boise,"Boise, Boise",-116.280614,43.591706,nan,40.0,Dollar($),No,No,No,No,3.0,4.0,Green,Very Good,435.0
6335.239742916642,17304486.0,Texas Roadhouse,216.0,Boise,"3801 E Fairview Avenue, Meridian, Boise, ID 83642",Meridian,"Meridian, Boise",-116.347304,43.619108,"American, BBQ, Steak",25.0,Dollar($),No,No,No,No,2.0,4.0,unknown,Very Good,369.0
164.0,17304533.0,unknown,177.00847805299193,Boise,noise,Nampa,"Nampa, Boise",-36.21661550269569,43.5777,American,40.0,Dollar($),No,nan,No,unknown,3.0,4.4,noise,Very Good,487.0
165.0,17316233.0,nan,216.0,Cedar Rapids/Iowa City,"3847 1st Ave SE, Cedar Rapids, IA 52402",Cedar Rapids,"Cedar Rapids, Cedar Rapids/Iowa City",-91.6336,42.0179,"American, Mediterranean, Seafood",40.0,Dollar($),No,No,No,No,1.068487831239914,3.7,noise,Good,98.0
166.0,17315883.0,Biaggi's Ristorante Italiano,216.0,Cedar Rapids/Iowa City,"320 Collins Rd NE, Cedar Rapids, IA 52402",Cedar Rapids,"Cedar Rapids, Cedar Rapids/Iowa City",-91.6327,42.0281,"Italian, Pizza",40.0,random,No,No,unknown,No,3.0,4.1,Green,Very Good,2417.2832429102414
167.0,17315995.0,El Super Burrito,216.0,Cedar Rapids/Iowa City,"3300 Johnson Ave NW, Cedar Rapids, IA 52405",Cedar Rapids,random,-91.7148,17.405339332354394,Mexican,10.0,Dollar($),No,No,No,No,1.0,4.1,Green,Very Good,7808.218613876227
168.0,17316018.0,Granite City Food & Brewery,216.0,Cedar Rapids/Iowa City,"4755 1st Ave SE, Cedar Rapids, IA 52402",unknown,unknown,-91.6224,42.0249,"American, Breakfast, Burger",40.0,Dollar($),random,No,No,No,3.0,4.1,Green,Very Good,1670.8255872395214
169.0,17316038.0,Irish Democrat,216.0,Cedar Rapids/Iowa City,"3207 1st Ave SE, Cedar Rapids, IA 52402",Cedar Rapids,"Cedar Rapids, Cedar Rapids/Iowa City",-91.6347,42.01,"American, BBQ, Burger",46290.955289315774,Dollar($),nan,No,No,nan,2.0,4.4,Green,Very Good,430.0
170.0,17316771.0,random,216.0,Cedar Rapids/Iowa City,"1060 Old Marion Rd NE, Cedar Rapids, IA 52402",Cedar Rapids,"Cedar Rapids, Cedar Rapids/Iowa City",128.29887247800355,42.0215347,random,25.0,Dollar($),No,No,No,No,2.0,4.2,Green,Very Good,186.0
2179.463137209794,17316201.0,Thai Moon Restaurant,216.0,random,nan,Cedar Rapids,"Cedar Rapids, Cedar Rapids/Iowa City",-91.7266,41.9639,"Chinese, Sushi, Thai",10.0,Dollar($),No,No,No,No,1.0,4.2,Green,Very Good,220.0
172.0,607427.0304234071,Ting's Red Lantern,216.0,Cedar Rapids/Iowa City,noise,Cedar Rapids,"Cedar Rapids, Cedar Rapids/Iowa City",-91.6394,42.0468,Chinese,10.0,Dollar($),No,No,No,nan,1.0,4.2,Green,noise,347.0
173.0,17316389.0,Monica's,133.8807119441216,Cedar Rapids/Iowa City,"303 2nd Street, Coralville, IA 52241",Coralville,noise,-91.569767,-7.292036721292703,"American, Italian, Pizza",25.0,Dollar($),No,No,nan,No,2.0,0.21852762075863372,noise,unknown,161.0
174.0,17316278.0,random,216.0,noise,"102 2nd Ave, Coralville, IA 52241",Coralville,"Coralville, Cedar Rapids/Iowa City",-91.5687,41.6685,Indian,25.0,Dollar($),No,No,No,No,1.0517826523335185,4.1,Green,Very Good,160.0
175.0,17316744.0,random,216.0,Cedar Rapids/Iowa City,"18 S Clinton St, Iowa City, IA 52240",Iowa City,"Iowa City, Cedar Rapids/Iowa City",-91.534424,13.795596780459562,Burger,10.0,Dollar($),nan,No,No,No,1.0,4.9,noise,Excellent,820.0
176.0,17316751.0,The Hamburg Inn No. 2 Inc.,216.0,unknown,unknown,Iowa City,"Iowa City, Cedar Rapids/Iowa City",-91.531414,41.663849,"American, Breakfast, Burger",10.0,Dollar($),unknown,unknown,No,No,1.0,4.5,unknown,Excellent,488.0
177.0,17316766.0,Bluebird Diner,216.0,noise,"330 E Market St, Iowa City, IA 52245",Iowa City,"Iowa City, Cedar Rapids/Iowa City",-91.531093,41.663751,"Breakfast, Diner",25.0,Dollar($),No,No,No,No,2.0,4.1723279642776365,Yellow,Good,253.0
178.0,17316743.0,Graze,216.0,Cedar Rapids/Iowa City,unknown,nan,nan,158.849060810217,41.658691,"American, International, Sushi",676320.3524629637,Dollar($),No,No,No,unknown,3.0,3.8,Yellow,Good,220.0
179.0,17316374.0,A & A Pagliai's Pizza,216.0,Cedar Rapids/Iowa City,unknown,Iowa City,"Iowa City, Cedar Rapids/Iowa City",159.1203522142619,41.6648,Pizza,25.0,Dollar($),No,No,No,No,2.0,4.3,Green,Very Good,485.0
353.3810606511524,17316381.0,noise,216.0,Cedar Rapids/Iowa City,"127 Iowa Ave, Iowa City, IA 52240",Iowa City,"Iowa City, Cedar Rapids/Iowa City",-16.232103344194,41.661,International,40.0,Dollar($),noise,No,No,No,3.0,4.3,Green,Very Good,5382.112033897532
181.0,17316802.0,BlackStone,216.0,Cedar Rapids/Iowa City,"503 Westbury Dr Ste 1, Iowa City, IA 52245",Iowa City,"Iowa City, Cedar Rapids/Iowa City",-91.482165,41.667742,"American, Breakfast",25.0,Dollar($),random,No,No,No,2.0,4.1,unknown,Very Good,294.0
182.0,17316416.0,random,216.0,Cedar Rapids/Iowa City,"117 N Linn St, Iowa City, IA 52245",unknown,random,-91.5318,-21.648803086765767,random,40.0,Dollar($),No,nan,No,No,2.2202131264597256,4.0,Green,Very Good,9979.318849284939
183.0,17316449.0,Jimmy Jack's Rib Shack,216.0,Cedar Rapids/Iowa City,nan,Iowa City,noise,-91.5074,41.6428,BBQ,25.0,random,No,unknown,No,No,2.0,4.2,Green,Very Good,259.0
184.0,17316603.0,Zoeys Pizzeria,85.82504710976134,Cedar Rapids/Iowa City,"690 10th St, Marion, IA 52302",Marion,noise,-91.5995,42.0331,unknown,162892.43364434558,Dollar($),No,No,random,No,2.0,4.7,Dark Green,Excellent,433.0
185.0,16659169.0,Tokyo Sushi,37.0,Chatham-Kent,"150 Richmond St, Chatham-Kent, ON N7M2V2",Chatham-Kent,"Chatham-Kent, Chatham-Kent",-82.188438,42.397683,"Japanese, Sushi",47800.54027135057,Dollar($),No,No,No,No,2.0,1.2435537516423538,Yellow,unknown,6022.445618599293
186.0,17558684.0,nan,183.5829883536822,noise,"49289 Us-30, Westport, OR 97016",Clatskanie,nan,-123.368151,46.126967,nan,405186.04687674256,nan,No,No,No,No,1.0,4.3135260570829,Green,Very Good,96.0
187.0,18366580.0,noise,216.0,Cochrane,"130 Quarry Street, Unit 20, Cochrane, AB T4C 0W5",unknown,random,-114.472474,51.183934,"Asian, Japanese",622223.8047424636,Dollar($),No,No,No,random,2.0,3.1,nan,nan,6.0
7923.3578922486595,17330755.0,Uptown Vietnam cuisine,216.0,Columbus,"1250 Broadway, Columbus, GA 31901",Columbus,"Columbus, Columbus",-108.72272899795192,32.470315,"Asian, Vietnamese",388464.35494339914,nan,No,No,No,No,1.0167252690438375,3.3,Orange,Average,33.0
189.0,17330611.0,random,56.15118563640813,Columbus,"2523 Airport Thruway, Columbus, GA 31904",Columbus,"Columbus, Columbus",-84.95591,32.519247,"American, Seafood, Cajun",25.0,Dollar($),No,No,No,No,2.0,4.6,Dark Green,nan,489.0
190.0,17330609.0,Mark's City Grille,216.0,nan,"7160 moon road, Columbus, GA 31909",nan,"Columbus, Columbus",-84.927047,32.555591,American,540115.4553596381,Dollar($),No,No,No,No,2.0,4.5,noise,Excellent,1328.8710153657662
191.0,17330024.0,B Merrell's,216.0,Columbus,"7600 Veterans Pkwy, Columbus, GA 31909",Columbus,"Columbus, Columbus",-84.9436,32.5577,"Burger, Bar Food, Southern",25.0,Dollar($),No,No,No,No,2.0,3.8,Yellow,Good,149.0
192.0,17330074.0,random,216.0,Columbus,"1041 Broadway, Columbus, GA 31901",Columbus,"Columbus, Columbus",-84.9936,32.4656,"Pizza, Bar Food",687192.5366507624,Dollar($),No,No,No,unknown,1.0843906847319045,0.8111976477127568,Yellow,Good,330.0
193.0,17330185.0,Fuji Japanese Steak House,216.0,Columbus,"6499 Veterans Pkwy, Columbus, GA 31909",noise,"Columbus, Columbus",-84.954984,39.77843140424888,"Japanese, Steak",40.0,Dollar($),noise,No,unknown,No,3.0,3.9,Yellow,random,247.0
194.0,2285376.7585809953,Ruth Ann's Family Restaurant,216.0,Columbus,"941 Veterans Parkway, Columbus, GA 31901",Columbus,"Columbus, Columbus",-84.9876,32.4637,"Breakfast, Diner, Southern",10.0,Dollar($),No,No,No,No,1.0,3.7,Yellow,Good,123.0
195.0,17330735.0,Samurai Japanese Cuisine & Sushi Bar,216.0,Columbus,"1009 Broadway, Columbus, GA 31901",Columbus,"Columbus, Columbus",-84.9933631,54.69814430589105,"Japanese, Steak, Sushi",40.0,Dollar($),No,No,No,unknown,3.0,3.6,nan,Good,109.0
196.0,5060813.264837689,Wasabi Sushi and Thai,216.0,Columbus,nan,Columbus,"Columbus, Columbus",-84.96661,10.960473020110598,"Japanese, Sushi, Thai",40.0,Dollar($),No,No,No,No,3.0,1.5378783147802257,Yellow,Good,134.0
6935.116973954997,17330048.0,Buckhead Bar and Grill,216.0,Columbus,"5010 Armour Rd, Columbus, GA 31904",Columbus,"Columbus, Columbus",-56.078066233076726,32.513154,"Seafood, Steak, Vegetarian",40.0,random,No,No,No,No,3.293353430627635,4.2,Green,Very Good,722.0
198.0,17330604.0,Burt's Butcher Shoppe and Eatery,216.0,Columbus,"2932 Warm Springs Rd, Columbus, GA 31909",Columbus,"Columbus, Columbus",48.26701365674114,32.504657,Steak,25.0,nan,No,No,No,random,1.7118238839931754,0.6466996273609974,Green,Very Good,213.0
8532.000384335432,17330087.0,Chef Lee's Peking Restaurant,216.0,Columbus,"6100 Bradley Park Dr, Columbus, GA 31904",Columbus,"Columbus, Columbus",115.00369629897176,32.5393,Chinese,25.0,random,No,No,No,No,2.0,3.1848552184593104,Green,Very Good,335.0
200.0,17330137.0,Country's Barbecue,216.0,Columbus,"3137 Mercury Dr, Columbus, GA 31906",Columbus,"Columbus, Columbus",-84.9464,32.4792,"BBQ, Southern",25.0,Dollar($),No,No,nan,No,2.0,4.0,Green,Very Good,353.0
201.0,17330155.0,Deorio's,216.0,noise,"3201 Macon Rd Ste 167, Columbus, GA 31906",nan,"Columbus, Columbus",-84.9427,32.481,"Italian, Pizza",0.0,Dollar($),unknown,No,No,No,1.0,2.9283238770340585,noise,Very Good,170.0
202.0,17330309.0,Mellow Mushroom,216.0,Columbus,"6100 Veterans Pkwy, Columbus, GA 31909",Columbus,"Columbus, Columbus",-84.9557,32.5321,Pizza,25.0,Dollar($),No,No,No,No,2.0,4.1,Green,Very Good,192.0
2516.970394652613,17330311.0,Meritage,216.0,Columbus,"1039 1st Ave, Columbus, GA 31901",Columbus,noise,-84.992093,32.466158,noise,40.0,unknown,No,No,No,No,3.0,1.3009849559893416,Green,Very Good,302.0
585.6603866915655,17330615.0,Mongo The Mongolian Fire Pit,216.0,Columbus,"7830 - E Veterans Pkwy, Columbus, GA 31909",Columbus,"Columbus, Columbus",-84.938698,32.560905,unknown,10.0,Dollar($),No,No,No,No,1.0,4.2,Green,Very Good,355.0
205.0,11667798.282733284,The Black Cow,123.68334790741274,Columbus,"115 A 12th St, Columbus, GA 31901",Columbus,"Columbus, Columbus",-84.991384,43.679470130417116,American,25.0,noise,No,No,noise,No,2.0,2.3032305502087116,Green,unknown,287.0
7057.401339310549,10015689.881564813,noise,216.0,Columbus,"5739 Whitesville Rd, Columbus, GA 31904",nan,"Columbus, Columbus",5.039337137996256,-20.627866070671967,"Italian, Mediterranean, Pizza",40.0,Dollar($),No,No,No,unknown,3.0,4.0,Green,noise,264.0
8763.520497491421,17330546.0,Hunter's Pub,50.43578945897427,Columbus,random,Hamilton,"Hamilton, Columbus",-85.0213,32.7455,"American, Seafood, Steak",40.0,Dollar($),No,No,nan,No,3.0,4.4,Green,Very Good,235.0
208.0,16643459.0,Consort Restaurant,37.0,Consort,"4931 50th Street, Consort, AB T0C 1B0",Consort,noise,-110.7746994,52.0082889,"Chinese, Canadian",545887.0413314782,random,No,No,No,No,2.0,3.0,Orange,nan,6.0
209.0,17334434.0,Thatcher's Barbeque and Grill,216.0,Dalton,"1214 N Wall St, Calhoun, GA 30701",Calhoun,"Calhoun, Dalton",66.82288821659091,34.5251331,"American, BBQ, Southern",103031.43010239842,Dollar($),noise,No,No,No,2.0,3.367063152856266,Yellow,Good,986.3942588348089
210.0,17334348.0,Christian and Jake's Bistro,216.0,Dalton,"555 Georgia Hwy 53, Calhoun, GA 30701",Calhoun,"Calhoun, Dalton",-84.926258,34.474635,"Desserts, Sandwich",10.0,Dollar($),No,No,No,No,1.0,4.4,Green,Very Good,122.0
7754.423612207025,17334213.0,Dub's High on the Hog,216.0,Dalton,"349 S Wall St, Calhoun, GA 30701",Calhoun,"Calhoun, Dalton",-75.53213485873911,44.03065554900036,BBQ,25.0,random,No,No,No,No,2.0,4.4,Green,Very Good,8337.93725044662
5443.20211099436,17334355.0,Sierra's Mexican Restaurant,216.0,noise,"500 S. 3rd Avenue, Chatsworth, GA 30705",Chatsworth,noise,-129.07032725497635,34.752476,random,10.0,Dollar($),noise,No,No,No,1.0,3.9,Yellow,Good,66.0
7964.506504637688,17334212.0,random,1.4400569673587773,Dalton,noise,Dalton,"Dalton, Dalton",-84.969393,34.769686,"BBQ, Breakfast, Southern",87731.13970685165,Dollar($),No,No,No,No,2.0917576003947342,4.9,Dark Green,Excellent,249.0
214.0,17333797.0,Chili's Grill & Bar,216.0,Dalton,"881 College Dr, Dalton, GA 30720",Dalton,"Dalton, Dalton",-85.0039,34.7643,American,25.0,Dollar($),No,No,No,nan,2.0,3.8,Yellow,noise,63.0
215.0,17334217.0,Fuji Japanese Steakhouse,216.0,Dalton,"1321 W Walnut Ave, Dalton, GA 30720",Dalton,"Dalton, Dalton",-84.992342,34.759551,"Japanese, Sushi",40.0,Dollar($),No,random,noise,noise,3.0,3.8,Yellow,Good,145.0
216.0,17334273.0,noise,216.0,Dalton,noise,Dalton,unknown,-84.992924,34.759665,Mexican,10.0,Dollar($),No,No,No,No,3.3687461706337545,3.8,Yellow,Good,83.0
619.6791839335331,17334254.0,random,216.0,Dalton,"933 Market St, Dalton, GA 30720",Dalton,nan,-77.8723675097285,34.758645,Italian,707302.0174437249,Dollar($),No,No,nan,No,2.0,3.0167295195027672,Yellow,Good,116.0
7366.823794453035,17333836.0,Filling Station,216.0,Dalton,"316 N Hamilton St, Dalton, GA 30720",nan,"Dalton, Dalton",-67.71385115707369,34.7742,"American, Burger",10.0,unknown,No,No,No,No,1.90660132364092,4.1,Green,random,122.0
219.0,1580713.9056660188,Five Guys Burgers and Fries,216.0,Dalton,"1303 W. Walnut Ave., Dalton, GA 30720",Dalton,"Dalton, Dalton",-84.990925,34.759273,Fast Food,10.0,Dollar($),unknown,No,No,No,1.0,4.1,Green,Very Good,3473.388809784246
220.0,17333882.0,Los Pablos,216.0,Dalton,"1513 W Walnut Ave Ste 6, Dalton, GA 30720",Dalton,"Dalton, Dalton",-84.9964,-41.07116447591321,Mexican,10.0,Dollar($),No,No,No,No,3.1888549914622195,4.1,Green,Very Good,114.0
221.0,17334211.0,Kobe Hibachi & Sushi,12.663057354884428,Dalton,"2603 Battlefield Pkwy, Fort Oglethorpe, GA 30742",Fort Oglethorpe,"Fort Oglethorpe, Dalton",-85.2229101,-23.756237639899457,"American, Japanese, Sushi",25.0,Dollar($),unknown,No,unknown,No,2.0,4.6,Dark Green,Excellent,214.0
222.0,17334390.0,Soho Hibachi,216.0,nan,"1014 Battlefield Parkway, Fort Oglethorpe, GA 30742",unknown,"Fort Oglethorpe, Dalton",-85.246237,34.9528157,Japanese,10.0,Dollar($),nan,No,unknown,No,1.0,4.3,random,Very Good,116.0
223.0,17334034.0,Thai Garden,216.0,unknown,"685 Battlefield Pkwy, Fort Oglethorpe, GA 30742",Fort Oglethorpe,"Fort Oglethorpe, Dalton",-85.2545,34.9546,Thai,25.0,Dollar($),No,No,unknown,nan,2.0,4.2,Green,Very Good,111.0
224.0,16516862.246431563,Southern Bliss Bakery,173.13501749509888,nan,"300 W Patton St., Lafayette, GA 30728",LaFayette,"LaFayette, Dalton",-85.294955,34.705093,"Desserts, Sandwich",187424.19110963898,noise,No,No,No,random,1.0,3.7,Yellow,Good,25.0
225.0,17334082.0,unknown,216.0,Dalton,"5540 Highway 41, Ringgold, GA 30736",Ringgold,unknown,-85.1321,34.9273,BBQ,748237.1565100501,Dollar($),No,noise,No,No,1.0666713634155889,4.1,Green,Very Good,128.0
226.0,18276138.959978856,random,132.134775622004,Dalton,"118 Remco Shops Lane, Ringgold, GA 30736",Ringgold,"Ringgold, Dalton",-85.130492,34.912109,noise,324063.9704362111,Dollar($),No,No,No,No,1.0,4.3,Green,unknown,244.0
227.0,17334398.0,nan,216.0,Dalton,"7807 Nashville St, Ringgold, GA 30736",Ringgold,"Ringgold, Dalton",-85.1079396,34.9151853,"American, BBQ, Southern",10.0,Dollar($),No,No,No,No,1.0,4.2,Green,Very Good,112.0
228.0,17334219.0,Pie Slingers Pizzeria,44.725878016384925,Dalton,"56A Fieldstone Village Drive, Rock Spring, GA 30739",Rock Spring,"Rock Spring, Dalton",-85.249727,34.851907,"Italian, Pizza",573815.6674995314,Dollar($),No,No,No,unknown,2.700901676200342,4.722832002911513,Green,Very Good,9003.544564287475
229.0,17335173.0,Olive Tree Cafe,216.0,unknown,"2513 53rd Avenue, Bettendorf, IA 52722",Bettendorf,nan,-90.496986,9.260081102830625,"Indian, Mediterranean, Middle Eastern",25.0,Dollar($),unknown,No,No,No,2.0,4.6,Dark Green,unknown,1043.5918312775852
230.0,17335195.0,"Red Ginger Sushi, Grill & Bar",207.54308356667758,unknown,"793 Middle Rd, Bettendorf, IA 52722",Bettendorf,"Bettendorf, Davenport",-90.522479,41.53845,"Sushi, Teriyaki",714670.4733700092,random,No,No,No,No,3.0,4.5,Dark Green,Excellent,208.0
231.0,17335225.0,Crust Stone Oven Pizza,159.4337002561325,nan,"2561 E 53rd Ave, Bettendorf, IA 52722",Bettendorf,"Bettendorf, Davenport",-90.4912446,41.5747801,"Burger, Pizza",25.0,Dollar($),No,No,No,unknown,2.0,3.9,Yellow,unknown,136.0
232.0,17335219.0,Jimmy's Pancake House,216.0,noise,nan,nan,"Bettendorf, Davenport",-90.504176,41.548746,"American, Breakfast, Greek",10.0,unknown,noise,No,No,No,1.0,4.0,Green,nan,85.0
233.0,17334965.0,Trattoria Tiramisu,216.0,Davenport,"1804 State St, Bettendorf, IA 52722",unknown,"Bettendorf, Davenport",-90.50709,41.525384,Italian,25.0,Dollar($),No,random,No,noise,2.0,1.1998375409007795,Green,Very Good,117.0
234.0,17335189.0,Prairie Grille at SteepleGate Inn,143.16066906611044,noise,random,Davenport,"Davenport, Davenport",-90.574088,41.593892,random,159595.70549323497,Dollar($),No,No,No,unknown,2.0,3.4,Orange,Average,53.0
5459.579458245841,4436266.849227594,Tantra Asian Bistro,57.24623757369824,Davenport,"589 East 53rd St, Davenport, IA 52807",nan,"Davenport, Davenport",-90.565837,41.574459,Asian,25.0,Dollar($),No,nan,No,No,2.0,4.9,Dark Green,Excellent,474.0
236.0,17334717.0,nan,139.58281576687273,Davenport,nan,Davenport,"Davenport, Davenport",-90.5716,-33.472579604662,Fast Food,10.0,Dollar($),unknown,No,No,No,1.111392267856012,3.9,Yellow,Good,125.0
237.0,17334752.0,Duck City Bistro,216.0,Davenport,"115 E 3rd St, Davenport, IA 52801",noise,"Davenport, Davenport",-90.5737,41.5223,"American, French",70.0,Dollar($),No,No,No,No,4.0,3.7,Yellow,Good,201.0
238.0,12626251.37104779,Frick's Tap,89.97376161860365,Davenport,"1402 W 3rd Street, IA 52802",Davenport,"Davenport, Davenport",-90.59466452,41.52253634,"American, Bar Food, BBQ",25.0,Dollar($),No,No,noise,No,2.0,0.0,White,Not rated,2.0
239.0,8686344.152109165,Los Agaves,216.0,Davenport,"4882 Utica Ridge Rd, Davenport, IA 52807",Davenport,"Davenport, Davenport",-90.5154313,41.5709434,Mexican,591072.7629700208,Dollar($),No,No,No,nan,2.0,2.83638733645755,White,Not rated,3.0
240.0,17334679.0,Azteca,216.0,Davenport,"4811 N Brady St Ste 3, Davenport, IA 52806",Davenport,"Davenport, Davenport",-90.5683,41.5699,Mexican,0.0,Dollar($),No,No,No,No,1.0,4.3,Green,Very Good,167.0
241.0,17334718.0,random,216.0,Davenport,"3018 E 53rd St, Davenport, IA 52807",Davenport,"Davenport, Davenport",-90.5321,-7.867349113726071,Chinese,25.0,Dollar($),No,No,No,No,2.0,4.0,nan,Very Good,112.0
242.0,2984785.9328501225,Exotic Thai Restaurant,14.606547763997554,Davenport,noise,Davenport,"Davenport, Davenport",-90.5432,41.5747,random,25.0,Dollar($),nan,No,nan,noise,2.0,4.1,Green,noise,256.0
243.0,17335158.0,Front Street Brewery,216.0,Davenport,"208 E River Dr, Davenport, IA 52801",Davenport,noise,-90.572418,41.520389,American,10.0,Dollar($),No,random,No,No,1.0,4.3,noise,Very Good,123.0
244.0,17334782.0,random,216.0,nan,"5270 Utica Ridge Rd, Davenport, IA 52807",unknown,"Davenport, Davenport",-62.428714064062376,41.5745,unknown,25.0,random,No,nan,No,noise,2.0,0.6274549961015722,Green,Very Good,199.0
245.0,17334846.0,random,216.0,Davenport,"3852 N Brady St, Davenport, IA 52806",Davenport,"Davenport, Davenport",-90.5686,41.559,Mexican,71722.4393067771,unknown,No,random,unknown,No,2.0,4.1,Green,Very Good,157.0
1999.9971968682266,17334853.0,Machine Shed Restaurant,216.0,Davenport,"7250 Northwest Blvd, Davenport, IA 52806",Davenport,"Davenport, Davenport",-90.6136,42.364736828128045,American,25.0,noise,random,No,No,No,2.0,4.1,Green,Very Good,8011.034796406861
247.0,14974670.22832237,Osaka,216.0,Davenport,"4901 Utica Ridge Rd, Davenport, IA 52807",random,"Davenport, Davenport",-90.515175,41.570997,"Japanese, Sushi",478158.39712713216,Dollar($),No,No,No,noise,3.0,4.2,Green,Very Good,3370.4418876525606
248.0,17334958.0,Texas Roadhouse,216.0,Davenport,"4005 E 53rd Street, Davenport, IA 52807",unknown,"Davenport, Davenport",-90.517,41.5747,"American, BBQ, Steak",25.0,Dollar($),No,No,random,No,2.0,4.2,Green,Very Good,197.0
249.0,17258496.0,random,216.0,Des Moines,"1404 S Duff Ave, Ames, IA 50010",Ames,"Ames, Des Moines",-93.610084,42.010254,"BBQ, Burger, Desserts",25.0,Dollar($),No,No,No,noise,2.0,1.1944549459679852,Dark Green,Excellent,1025.0
250.0,17259395.0,The Cafe,216.0,Des Moines,"2616 Northridge Pkwy, Ames, IA 50010",noise,"Ames, Des Moines",-93.643094,38.26854497801638,"American, Coffee and Tea",25.0,Dollar($),No,noise,No,nan,2.0,4.9,Dark Green,Excellent,570.0
251.0,17258350.0,nan,159.50280123149273,Des Moines,"4345 Hickman Rd, Des Moines, IA 50310",noise,"Beaverdale, Des Moines",-93.677638,41.614965,"BBQ, Caribbean, Cajun",40.0,Dollar($),No,nan,No,No,3.0,4.5,Dark Green,Excellent,674.0
252.0,17258136.0,Cool Basil,216.0,Des Moines,"8801 University Ave, Clive, IA 50325",Clive,nan,-93.739573,41.600564,"Asian, Sushi, Thai",25.0,nan,No,No,No,unknown,2.0,4.1,Green,unknown,496.0
64.98278850181941,17258522.0,noise,216.0,noise,"4100 University Avenue, West Des Moines, IA 50266",Clive,"Clive, Des Moines",-93.760027,41.60028,"Asian, Chinese",25.0,nan,nan,No,No,No,2.0,4.0,Green,Very Good,411.0
254.0,17259958.0,Malo,216.0,Des Moines,"900 Mulberry Street, Des Moines, IA 50309",Downtown,"Downtown, Des Moines",-93.627896,41.583309,"Latin American, Mexican",25.0,Dollar($),No,No,No,No,2.0,3.2,noise,Average,113.0
255.0,17258036.0,Centro,216.0,Des Moines,random,Downtown,unknown,-93.6300803,22.570958146880308,"Italian, Pizza",40.0,Dollar($),nan,No,No,No,3.0,4.5,Dark Green,unknown,1109.0
256.0,17259368.0,Fong's Pizza,216.0,Des Moines,noise,Downtown,"Downtown, Des Moines",66.74651372572708,41.585465,"Chinese, Pizza",25.0,unknown,No,No,No,unknown,2.0,4.6,Dark Green,Excellent,728.0
257.0,17257684.0,A Dong Restaurant,27.30116341613903,Des Moines,unknown,Downtown,"Downtown, Des Moines",-132.8941039571483,41.587219,"Asian, Vegetarian, Vietnamese, Bubble Tea",10.0,Dollar($),No,unknown,No,noise,1.0,4.4,unknown,Very Good,659.0
258.0,17258154.0,Court Avenue Brewing Company,216.0,Des Moines,nan,Downtown,"Downtown, Des Moines",-93.620726,41.58536,"American, Pizza, Bar Food",152395.70624071456,noise,No,No,No,No,3.0,4.2,Green,Very Good,370.0
259.0,17259340.0,Django,216.0,Des Moines,nan,Downtown,"Downtown, Des Moines",-93.629436,46.29353939788818,French,779632.1581481351,nan,No,No,No,No,2.3373731507260826,4.3,Green,nan,532.0
260.0,17259243.0,Miyabi 9,214.79993650433957,Des Moines,"512 E Grand Ave, Des Moines, IA 50309",East Village,nan,-93.611366,41.590819,"Japanese, Sushi",25.0,Dollar($),No,No,No,No,2.0,4.8,Dark Green,Excellent,860.0
261.0,17259625.0,Zombie Burger + Drink Lab,216.0,Des Moines,"300 E. Grand Ave., Des Moines, IA 50309",East Village,"East Village, Des Moines",-89.23554047486687,35.38322858264077,"Burger, Desserts, Vegetarian",10.0,Dollar($),No,No,No,No,1.0,4.2,Green,Very Good,7822.2968127240765
262.0,17259169.0,unknown,216.0,Des Moines,"2200 Hubbell Ave, Des Moines, IA 50317",Fairground,"Fairground, Des Moines",-93.577383,-38.47988762260459,"American, Italian",70.0,Dollar($),nan,No,No,No,4.0,4.1,Green,Very Good,476.0
263.0,17259166.0,unknown,216.0,Des Moines,"4230 Fleur Dr, Des Moines, IA 50321",Greater South Side,random,-93.645245,41.545869,Chinese,10.0,Dollar($),No,No,random,random,1.0,4.1,Green,Very Good,218.0
1539.0969542082264,17259335.0,Bandit Burrito,216.0,Des Moines,"5340 Merle Hay Road, Johnston, IA 50131",random,"Johnston, Des Moines",-93.6976773,38.6025133864391,random,10.0,Dollar($),nan,No,No,No,1.0,4.00288549926018,Green,Very Good,214.0
255.8025481161543,17259248.0,Jethro's BBQ,208.74770022689052,Des Moines,"3100 Forest Ave, Des Moines, IA 50311",Kingman Place Historic District,"Kingman Place Historic District, Des Moines",-93.659797,41.603901,"American, BBQ",25.0,Dollar($),No,random,No,No,2.0,4.3,Green,Very Good,699.0
266.0,17258552.0,The Machine Shed Restaurant,216.0,Des Moines,"11151 Hickman Road, Urbandale, IA 50322",Urbandale,nan,-93.772033,41.615083,"American, Breakfast",25.0,Dollar($),No,No,No,No,2.0,3.991414810917412,Yellow,unknown,308.0
267.0,17259550.0,Mi Patria,216.0,Des Moines,"1410 22nd St., West Des Moines, IA 50266",West Des Moines,"West Des Moines, Des Moines",0.8349080579430392,7.843867733783497,Latin American,46862.63264873345,Dollar($),No,No,No,random,2.0,4.0,Green,unknown,157.0
268.0,17259200.0,Waterfront Seafood Market,216.0,Des Moines,"2900 University Ave, West Des Moines, IA 50266",West Des Moines,"West Des Moines, Des Moines",-93.7441981,41.5991771,"Seafood, Sushi",40.0,Dollar($),No,No,No,unknown,3.0,4.2,random,Very Good,530.0
269.0,16615894.0,The Giggling Goat,14.0,noise,nan,nan,"Dicky Beach, Dicky Beach",153.137401,-26.783576,"Coffee and Tea, Tea, Modern Australian",7.0,Dollar($),noise,No,No,noise,1.0,3.6,Yellow,Good,4508.617456268072
270.0,17342816.0,Burnt Toast Cafe,216.0,Dubuque,"1220 Iowa St, Dubuque, IA 52001",Dubuque,"Dubuque, Dubuque",85.44982554181883,42.504759,Breakfast,10.0,Dollar($),No,No,No,No,1.0,3.4,Orange,Average,33.0
271.0,17342498.0,Catfish Charlie's,216.0,Dubuque,"1630 E 16th St, Dubuque, IA 52001",Dubuque,"Dubuque, Dubuque",-90.6499328,42.5124724,unknown,25.0,Dollar($),No,nan,No,No,2.0,3.3,Orange,Average,2045.2737552483222
272.0,17342648.0,Salsa's Mexican Restaurant,216.0,Dubuque,"1091 Main St, Dubuque, IA 52001",Dubuque,"Dubuque, Dubuque",-90.6684746,42.5032004,Mexican,10.0,Dollar($),No,No,No,No,1.0,3.4,Orange,Average,10854.362592677384
273.0,1203893.6344413853,Tony Roma's,52.615761825464425,unknown,"350 Bell St, Dubuque, IA 52001",Dubuque,random,-90.658609,4.56847689448805,"American, BBQ, Seafood",25.0,Dollar($),No,No,No,No,3.656624469178817,3.3,Orange,Average,65.0
274.0,17342799.0,noise,216.0,Dubuque,"180 Main Street, Dubuque, IA 52001",Dubuque,"Dubuque, Dubuque",-90.664029,42.495689,noise,25.0,nan,random,No,No,No,2.0,3.4,random,Average,1566.4824894561696
275.0,17342772.0,Champps Americana,216.0,Dubuque,"3100 Dodge St., Dubuque, IA 52003",nan,"Dubuque, Dubuque",-90.715247,42.492018,"American, Burger, Sandwich",25.0,Dollar($),No,noise,No,No,1.2082103395197574,3.5,Yellow,Good,2371.783588428801
276.0,5550919.116402085,Fiesta Cancun,216.0,Dubuque,"2515 NW Arterial, Dubuque, IA 52002",Dubuque,"Dubuque, Dubuque",47.04765872492308,42.49092,Mexican,10.0,Dollar($),No,random,No,unknown,1.4504574369577656,3.6,Yellow,nan,156.0
277.0,17342548.0,Happy Joe's Pizza & Ice Cream,216.0,Dubuque,"855 Century Dr, Dubuque, IA 52002",Dubuque,"Dubuque, Dubuque",-90.7264,42.4955,"Desserts, Pizza, Ice Cream",0.0,Dollar($),No,No,No,unknown,1.0,3.5,Yellow,Good,74.0
278.0,17342556.0,Houlihan's,174.3798440958346,Dubuque,unknown,Dubuque,"Dubuque, Dubuque",-90.645294,23.913148292588048,nan,25.0,Dollar($),No,No,No,No,1.8101259198391393,3.6,random,Good,117.0
279.0,17342811.0,nan,216.0,noise,"3187 University Ave, Dubuque, IA 52001",Dubuque,nan,-53.302965736548586,42.492963,nan,40.0,Dollar($),No,No,No,No,1.9695128704572544,3.7,Yellow,Good,83.0
280.0,17342576.0,Kalmes Breaktime Bar & Grill,30.44065347002327,noise,"1097 Jackson St, Dubuque, IA 52001",Dubuque,nan,-90.6646,42.5043,"American, Burger",25.0,Dollar($),No,No,No,noise,2.0,3.6,Yellow,noise,48.0
281.0,17342770.0,L. May Eatery,216.0,Dubuque,"1072 Main St, Dubuque, IA 52001",Dubuque,"Dubuque, Dubuque",-112.88448338241543,42.503075,"International, Pizza",40.0,Dollar($),No,No,No,No,3.0,3.8,random,nan,198.0
282.0,17342585.0,Los Aztecas,168.6052543262912,unknown,"2700 Dodge St, Dubuque, IA 52003",Dubuque,"Dubuque, Dubuque",-90.7055,42.4916,Mexican,342634.7020881266,Dollar($),No,No,No,unknown,1.0,4.009149652784324,Yellow,Good,126.0
283.0,17342494.0,Manna Java World Cafe,216.0,Dubuque,"700 Locust St, Dubuque, IA 52001",nan,unknown,-90.6677349,42.500191,"Breakfast, Pizza",10.0,Dollar($),No,No,No,No,3.6370920958512465,3.5,Yellow,random,119.0
284.0,17342594.0,Mario's Italian Restaurant,216.0,Dubuque,random,Dubuque,random,-90.6691,42.5048,"American, Italian",25.0,Dollar($),No,No,No,No,2.0,3.6,Yellow,Good,140.0
285.0,17342625.0,Pepper Sprout Incorporated,73.54927231788729,Dubuque,"378 Main St, Dubuque, IA 52001",Dubuque,"Dubuque, Dubuque",-90.6651,42.4974,American,40.0,Dollar($),No,No,No,No,1.0264082866121276,3.6,Yellow,Good,159.0
3841.7031498085657,17342652.0,nan,216.0,Dubuque,"290 Locust St, Dubuque, IA 52001",Dubuque,"Dubuque, Dubuque",-90.6658,42.4963,"Italian, Pizza",25.0,Dollar($),No,unknown,unknown,No,2.0,3.6,Yellow,Good,131.0
287.0,8818728.77773815,Sunshine Family Restaurant,216.0,noise,"401 Central Ave, Dubuque, IA 52001",Dubuque,"Dubuque, Dubuque",-90.663686,42.4982789,"American, Breakfast, Burger",10.0,Dollar($),No,noise,No,No,1.1345713427160067,3.5,Yellow,Good,60.0
288.0,12705418.820064861,noise,216.0,Dubuque,"51 W 32nd Street, Dubuque, IA 52001",Dubuque,random,-90.684882,42.527556,"American, Burger, Pizza, Cafe",25.0,Dollar($),No,noise,No,No,2.0,3.7,Yellow,nan,89.0
289.0,17342775.0,Woodfire Grille,216.0,Dubuque,"301 Bell Street, Dubuque, IA 52001",random,"Dubuque, Dubuque",167.4217110182547,42.496378,"American, Seafood, Steak",70.0,Dollar($),No,No,No,unknown,4.0,3.6,Yellow,Good,3299.551817384673
290.0,16600483.453936921,The Belle General,14.0,East Ballina,"12 Shelly Beach Rd, East Ballina, NSW",East Ballina,random,-107.82013917349516,-28.862663,Cafe,20.0,random,noise,No,nan,No,2.0,4.1,Green,Very Good,56.0
291.0,17536645.0,Jehova es Mi Pastor Tacos y Burritos,216.0,Fernley,"135 W. Main Street, Fernley, NV 89408",Fernley,"Fernley, Fernley",-119.252694,39.607515,Mexican,10.0,unknown,unknown,random,noise,No,1.0,3.7,nan,Good,83.0
292.0,16613507.0,Flaxton Gardens,14.0,Flaxton,"313 Flaxton Drive, Flaxton, QLD",Flaxton,"Flaxton, Flaxton",152.8771473,-26.6521332,"Tea, Modern Australian",30.0,nan,No,No,No,No,3.0,3.5,Yellow,random,37.0
293.0,16607969.0,Bespoke Harvest,14.0,Forrest,"16 Grant St, Forrest, VIC",Forrest,"Forrest, Forrest",143.714315,-38.517292,"Cafe, Australian",776496.4435252,Dollar($),No,random,No,nan,2.0,3.7,Yellow,Good,29.0
2153.0441925953883,17374405.0,nan,216.0,random,"6323 Grand Hickory Dr Ste 200A, Braselton, GA 30517",Braselton,"Braselton, Gainesville",122.93503746289105,34.0901,"American, Sandwich, Seafood",25.0,Dollar($),No,No,No,No,1.9581290092325325,4.4,Green,Very Good,239.0
7042.974413231448,17375060.0,Hawg Wild BBQ & Catfish House,216.0,Gainesville,"515 Grant Street, Clarkesville, GA 30523",Clarkesville,"Clarkesville, Gainesville",-83.520693,34.61802,"BBQ, Burger, Seafood",10.0,Dollar($),random,No,No,No,1.0,4.1,Green,Very Good,6622.018696493742
296.0,17375164.0,Bourbon Street Grille,206.48244320607688,Gainesville,"90 Public Sq N, Dahlonega, GA 30533",Dahlonega,"Dahlonega, Gainesville",-83.985353,34.532973,random,25.0,Dollar($),No,No,No,No,2.0,3.8,noise,Good,88.0
297.0,17374552.0,Corkscrew Cafe,216.0,Gainesville,"51 W Main St, Dahlonega, GA 30533",Dahlonega,nan,-105.89092524385507,34.5318,,40.0,Dollar($),No,No,No,No,3.0,3.9,Yellow,Good,209.0
298.0,17375078.0,Smokin Gold BBQ,216.0,Gainesville,"59 E Main St, Dahlonega, GA 30533",Dahlonega,"Dahlonega, Gainesville",-83.983939,34.533626,BBQ,10.0,Dollar($),No,No,No,No,3.464117710866237,3.9,Yellow,Good,9871.950947814352
299.0,9295786.297054956,Hoka-Hoka Japanese Steak & Sushi,216.0,Gainesville,"617 North Grove Street, Dahlonega, GA 30533",random,unknown,-83.989317,34.541044,"Chinese, Japanese, Thai",275985.3619879154,unknown,No,No,unknown,No,1.5873481132940035,4.4,Green,Very Good,2055.698913746495
300.0,17375077.0,Shenanigan's Irish Pub,216.0,unknown,nan,Dahlonega,"Dahlonega, Gainesville",142.74826232526874,17.06321302785871,"Bar Food, Seafood, Vegetarian",25.0,Dollar($),No,No,No,random,2.0,4.1,Green,Very Good,171.0
301.0,17375141.0,Fish Tales Lakeside Grille,216.0,random,"6330 Mitchell Street, Flowery Branch, GA 30542",Flowery Branch,"Flowery Branch, Gainesville",-83.938024,34.183573,Seafood,25.0,nan,unknown,No,No,noise,2.0,3.8,Yellow,Good,107.0
302.0,17596039.20287897,unknown,3.153426447318229,Gainesville,"5510 Church Street, Flowery Branch, GA 30542",Flowery Branch,"Flowery Branch, Gainesville",-83.926217,34.185707,"American, Southern",40.0,Dollar($),No,No,No,No,3.0,4.3,Green,Very Good,164.0
303.0,11867201.033429895,Moonie's Texas Barbecue,216.0,Gainesville,unknown,Flowery Branch,"Flowery Branch, Gainesville",-83.927794,34.180043,"BBQ, Sandwich",10.0,Dollar($),No,No,No,No,1.0,4.1,Green,Very Good,6248.541567317668
304.0,17375072.0,Atlanta Highway Seafood Market,216.0,Gainesville,"227 Atlanta Highway Suite 900, Gainesville, GA 30501",Gainesville,"Gainesville, Gainesville",-83.838457,-26.6230933998441,"Sandwich, Seafood, Cajun",25.0,Dollar($),No,No,No,No,2.0,4.9,random,Excellent,681.0
305.0,17502834.043753933,nan,216.0,Gainesville,"975 Dawsonville Hwy, Gainesville, GA 30501",Gainesville,"Gainesville, Gainesville",-83.857993,34.300182,Thai,648798.6609581365,Dollar($),No,No,No,noise,2.294059373703087,4.6,Dark Green,Excellent,357.0
306.0,723855.141784476,Smoke House BBQ and Catering,216.0,nan,"3205 Atlanta Hwy, Atlanta Highway, Gainesville, GA, Gainesville, GA 30507",Gainesville,"Gainesville, Gainesville",-83.860098,34.222755,BBQ,25.0,Dollar($),noise,No,No,No,1.6804934097654316,3.8,noise,Good,1552.440966287777
307.0,17374921.0,2 Dog,216.0,Gainesville,unknown,Gainesville,random,-83.824023,34.300567,"American, European, Sandwich",25.0,Dollar($),No,noise,No,No,2.0,4.2,Green,Very Good,7577.3459959547945
308.0,17374819.0,unknown,216.0,Gainesville,"1043 Riverside Terrace, Gainesville, GA 30501",Gainesville,"Gainesville, Gainesville",-62.08629474143535,-31.17636020685867,random,10.0,Dollar($),No,No,No,No,1.0,4.3,Green,nan,298.0
309.0,17375089.0,Re-Cess,13.97224313094369,Gainesville,random,Gainesville,"Gainesville, Gainesville",-26.559483674311053,34.300332,nan,25.0,random,No,No,random,No,2.0,4.2,Green,nan,319.0
2647.3863833608507,359189.1169798505,Bodensee,216.0,Gainesville,"64 Munich Strasse, Helen, GA 30545",Helen,nan,-13.489078129523392,-37.26092748554134,German,312953.11727351125,Dollar($),No,No,No,No,3.0,3.8,Yellow,noise,114.0
311.0,17374951.0,Hofer's Bakery & Cafe,96.84605932584243,Gainesville,"8758 N Main St, Helen, GA 30545",unknown,"Helen, Gainesville",171.24828971053267,-18.93768914013692,"German, Ice Cream",10.0,Dollar($),No,nan,No,No,1.0,3.9,random,Good,4992.643621402874
312.0,2376196.031980388,Troll Tavern,216.0,nan,unknown,Helen,"Helen, Gainesville",-83.7334,34.7021,"Burger, German, Sandwich",25.0,Dollar($),unknown,No,No,No,2.0,2.2,Red,Poor,108.0
5999.005012938469,17375104.0,unknown,216.0,Gainesville,"7275 S Main St., Helen, GA 30545",Helen,"Helen, Gainesville",-83.713498,34.691208,unknown,10.0,Dollar($),random,No,No,No,1.0,0.5883699762960988,Green,Very Good,161.0
314.0,16604358.0,Blue Bean Love Cafe,14.0,Hepburn Springs,"115 Main Rd, Hepburn Springs, Hepburn Springs, VIC",Hepburn Springs,"Hepburn Springs, Hepburn Springs",144.1387014,-37.3123267,"Cafe, Coffee and Tea, Modern Australian",20.0,Dollar($),No,No,No,No,2.0,3.8,Yellow,noise,192.0
315.0,16604896.0,La Trattoria of Lavandula,14.0,Hepburn Springs,random,Hepburn Springs,noise,144.110062,-37.275494,"Italian, Fusion, Cafe",7.0,Dollar($),No,No,random,No,1.0,3.8,Yellow,Good,93.0
316.0,16012162.601162937,5 Little Pigs,14.0,noise,"64 Owen St, Huskisson, NSW",Huskisson,"Huskisson, Huskisson",150.6710743,-35.0388698,nan,20.0,random,No,No,No,No,2.0,4.1,Green,unknown,5736.275093833908
317.0,16298779.168887958,Beach Box Cafe,106.31998866366735,Inverloch,"6a Ramsay Blvd, Inverloch, VIC",Inverloch,"Inverloch, Inverloch",145.7287133,-38.6347458,"Burger, Coffee and Tea, Modern Australian",772439.465666739,Dollar($),random,random,No,No,2.183371493795034,3.7,Yellow,noise,100.0
8332.626641086143,16605794.0,Funkey Monkey,117.00869468637745,unknown,"26 Myer street, Lakes Entrance, VIC",Lakes Entrance,noise,147.9942247,-37.8783865,"Breakfast, Coffee and Tea",7.0,Dollar($),No,No,nan,No,1.0,3.8,Yellow,Good,97.0
319.0,17557488.0,Burger Queen Drive In,216.0,Lakeview,noise,Lakeview,"Lakeview, Lakeview",-120.3458,42.1885,"Burger, Desserts, Sandwich",10.0,noise,No,No,No,No,1.0,3.6,Yellow,Good,41.0
320.0,17452342.0,Blue Orchid Thai Restaurant,216.0,Lincoln,"129 N 10th St, Lincoln, NE 68508",Haymarket,"Haymarket, Lincoln",-96.7072,40.8143,Thai,25.0,Dollar($),No,No,No,No,2.0,4.5,Dark Green,Excellent,799.0
6640.749827962901,16611498.0,Stillwater on Belmore,14.0,Lorn,nan,Lorn,random,-43.616781320919756,-37.38417020447309,"Breakfast, Coffee and Tea",20.0,Dollar($),No,No,No,unknown,2.0,3.6,Yellow,Good,18.0
322.0,6578782.410668865,Mr.,14.0,Macedon,unknown,Macedon,"Macedon, Macedon",-141.53600718286285,-37.423189,Cafe,20.0,Dollar($),No,No,No,No,2.0,3.5,Yellow,Good,31.0
323.0,17501291.0,nan,216.0,Macon,"402 Ga. Highway 247, Bonaire, GA 31005",Bonaire,"Bonaire, Macon",-83.594494,32.567741,"Coffee and Tea, Cuban, Latin American",25.0,Dollar($),No,No,No,No,2.0,3.9,random,Good,146.0
324.0,17500759.0,Ingleside Village Pizza,216.0,random,"2395 Ingleside Ave, Macon, GA 31204",Macon,"Macon, Macon",-83.657061,32.853896,"Pizza, Sandwich",10.0,Dollar($),random,No,No,No,1.0,4.9,Dark Green,Excellent,478.0
325.0,17500767.0,random,216.0,Macon,"3040 Vineville Ave, Macon, GA 31204",Macon,"Macon, Macon",-83.6737,54.60778899010843,Seafood,699552.8337653851,Dollar($),No,No,nan,No,2.0,4.6,Dark Green,nan,467.0
326.0,17500819.0,Mandarin Chinese Restaurant,216.0,Macon,random,Macon,nan,-83.6766,32.8899,"Chinese, Thai",25.0,nan,unknown,No,No,No,2.0,4.5,Dark Green,Excellent,2996.842518989796
327.0,15396351.286577007,Rookery,216.0,noise,unknown,Macon,"Macon, Macon",-83.6279,24.088527228328275,"Burger, Desserts, Bar Food",25.0,Dollar($),unknown,No,noise,No,2.0,4.5,Dark Green,Excellent,289.0
328.0,6980483.807789681,Dovetail,216.0,noise,"543 Cherry St, Macon, GA 31201",nan,"Macon, Macon",-83.627979,38.91764663610573,unknown,40.0,Dollar($),No,No,No,No,3.0,3.8,Yellow,Good,5518.182890645107
329.0,17077053.230082918,noise,216.0,Macon,"5080 Riverside Dr, Macon, GA 31210",Macon,"Macon, Macon",-83.713978,23.255775864837418,noise,40.0,Dollar($),No,No,No,No,3.0,3.963637592307592,Green,Very Good,293.0
330.0,17500695.0,random,216.0,Macon,"562 Mulberry St, Macon, GA 31201",Macon,"Macon, Macon",-83.6276,32.8375,noise,70.0,Dollar($),No,No,No,nan,4.0,4.0,Green,Very Good,195.0
331.0,17501298.0,nan,216.0,Macon,"587 Cherry St, Macon, GA 31201",Macon,"Macon, Macon",-83.628703,32.83654,"Desserts, Greek, Sandwich",10.0,Dollar($),noise,nan,No,No,1.0,4.3,Green,Very Good,1711.817305682664
332.0,17500847.0,Natalia's,216.0,Macon,"201 North Macon St., Macon, GA 31210",Macon,"Macon, Macon",-83.787993,32.928495,"European, Italian, Mediterranean",70.0,Dollar($),No,No,No,random,4.0,1.5800702179525117,Green,Very Good,379.0
333.0,3881479.209490566,noise,216.0,Macon,"121 Tom Hill Sr Blvd, Macon, GA 31210",Macon,"Macon, Macon",139.19322893117936,31.341888239403005,"Greek, Mediterranean, Vegetarian",10.0,nan,No,No,No,No,1.0,4.2,noise,Very Good,223.0
334.0,17501315.0,Benson's Steak and Sushi,216.0,Macon,"1289 S Houston Lake Rd, Warner Robins, GA 31088",Warner Robins,"Warner Robins, Macon",-83.662421,32.556873,"American, Chinese, Sushi",741453.3797522779,Dollar($),nan,random,No,unknown,1.6365504213181645,4.431124004416212,Yellow,Good,243.0
335.0,17501201.0,My Fathers Place,97.39012732354543,Macon,"2507 Moody Rd, Warner Robins, GA 31088",Warner Robins,"Warner Robins, Macon",-83.624,-13.006652708245586,Italian,25.0,Dollar($),No,No,No,No,2.0,4.504597287847435,Yellow,Good,9999.585350281151
336.0,17501247.0,Sushi Thai Restaurant,216.0,Macon,nan,nan,noise,-83.6665,32.6184,"Japanese, Sushi, Thai",10.0,Dollar($),nan,No,No,No,1.0,3.7,Yellow,noise,153.0
337.0,270894.80830321874,nan,216.0,Macon,"710 Lake Joy Road, Warner Robins, GA 31088",unknown,nan,-83.691044,32.552684,"Pizza, Sandwich, Vegetarian",578409.8898442509,Dollar($),No,No,No,No,2.0,3.8,Yellow,random,323.0
338.0,17501143.0,El Jalisciense Mexican Restaurant,216.0,Macon,"1224 Russell Pkwy, Warner Robins, GA 31088",Warner Robins,"Warner Robins, Macon",-83.64935,32.594666,Mexican,10.0,Dollar($),No,No,No,No,1.0,4.1,Green,Very Good,181.0
339.0,17501292.0,Greek Village,216.0,Macon,noise,Warner Robins,"Warner Robins, Macon",-83.636618,32.6176839,unknown,25.0,Dollar($),No,No,No,No,2.0,4.0,Green,Very Good,316.0
340.0,17501308.0,Martin's BBQ,216.0,Macon,"102 S Armed Forces Boulevard, Warner Robins, GA 31088",Warner Robins,"Warner Robins, Macon",-139.1830625210655,40.32439370327377,BBQ,25.0,nan,No,No,No,No,1.6645650337945268,3.1473591689425144,Green,Very Good,5830.637238345918
9412.772882313626,17501301.0,Thai Pepper,216.0,Macon,"1806 Russell Parkway, Warner Robins, GA 31088",Warner Robins,"Warner Robins, Macon",-83.665557,32.593264,"Japanese, Sushi, Thai",10.0,Dollar($),No,No,unknown,No,1.0,3.218692149120175,Green,Very Good,232.0
342.0,17501268.0,nan,84.71475112864023,Macon,"4086 Watson Blvd, Warner Robins, GA 31093",Warner Robins,"Warner Robins, Macon",-83.7184,-31.887611450041007,nan,40.0,Dollar($),No,No,No,No,3.2418599746340333,4.045825373958024,random,Very Good,7335.85048311492
4875.683937277824,16611701.0,Star Buffet,14.0,random,"58 Hanbury St, Mayfield, NSW",Mayfield,"Mayfield, Mayfield",151.7343832,-32.899178,unknown,20.0,Dollar($),No,No,No,No,2.0,2.9,Orange,Average,11.0
344.0,17482142.0,Triangle Restaurant,216.0,Mc Millan,"21053 State Hwy M28, Mc Millan, MI 49853",Mc Millan,"Mc Millan, Mc Millan",-85.7363,46.3718,"Breakfast, Burger",10.0,Dollar($),No,No,No,No,1.0,2.4,Red,Poor,17.0
345.0,16609169.0,Three Anchors,201.2801452845004,Middleton Beach,unknown,Middleton Beach,"Middleton Beach, Middleton Beach",117.917166,-35.025861,"Bar Food, Modern Australian",30.0,Dollar($),No,random,random,No,3.0,3.8,nan,nan,176.0
346.0,9272547.90573256,HI Lite Bar & Lounge,59.141852215335405,Miller,"109 N Broadway Ave, Miller, SD 57362",Miller,"Miller, Miller",-98.9891,44.5158,,603143.4607915492,Dollar($),nan,No,No,nan,1.0,3.4,Orange,Average,11.0
347.0,17687832.0,Vince's Restaurant & Pizzeria,216.0,Monroe,"619 4th Ave, Monroe, WI 53566",Monroe,"Monroe, Monroe",-89.653487,42.606306,"Italian, Pizza",25.0,Dollar($),No,unknown,No,No,1.8707595078916386,3.6,Yellow,Good,65.0
348.0,16613059.0,Poets Cafe,14.0,Montville,"167 Main St, Montville, QLD",Montville,"Montville, Montville",152.893735,-26.690462,nan,30.0,Dollar($),No,No,No,unknown,2.91367585940722,2.4,Red,Poor,162.86317079432652
349.0,17534788.0,The Artesian Restaurant,18.308935593921927,nan,"Ojo Caliente Mineral Springs Resort And Spa 50 Los Banos Rd, Ojo Caliente, NM 87549",Ojo Caliente,"Ojo Caliente, Ojo Caliente",-106.057666,36.313638,"American, International, Southwestern",40.0,Dollar($),No,random,No,No,3.0,3.6,noise,Good,30.0
350.0,12771778.206381015,noise,216.0,Orlando,"125 West Church Street, Orlando, FL 32801",Church Street District,"Church Street District, Orlando",-81.381077,28.540432,"Spanish, Tapas",40.0,Dollar($),No,No,No,No,3.482379710217414,4.4,Green,Very Good,981.0
351.0,3353649.56587825,'Ohana,186.80925282526366,Orlando,"1600 Seven Seas Drive, Lake Buena Vista, FL 32830",Disney World Area,random,-81.585226,28.405437,Hawaiian,45.0,Dollar($),No,No,No,noise,3.0,4.5,Dark Green,Excellent,8940.113306323792
5347.892371156574,17058534.0,Earl of Sandwich,216.0,Orlando,"1750 E Buena Vista Drive, Lake Buena Vista, FL 32830",Disney: Downtown Disney,"Disney: Downtown Disney, Orlando",-81.514608,28.372858,unknown,35.0,Dollar($),No,No,noise,No,2.299633988339446,3.0860214666977943,Dark Green,Excellent,1341.0
353.0,17060320.0,Raglan Road Irish Pub and Restaurant,216.0,Orlando,"1640 E Buena Vista Drive, Lake Buena Vista, FL 32830",Disney: Downtown Disney,"Disney: Downtown Disney, Orlando",-81.517725,28.371338,Irish,113025.30729945905,Dollar($),No,random,No,No,4.0,4.3,Green,Very Good,4134.289791425149
354.0,17057925.0,Cafí© Tu Tu Tango,216.0,noise,"8625 International Drive, Orlando, FL 32819",I-Drive/Universal,nan,-81.469986,28.440344,"New American, Tapas",185255.09754948414,Dollar($),No,No,No,No,3.0,4.6,Dark Green,Excellent,1293.0
355.0,17060869.0,Texas de Brazil,216.0,Orlando,"5259 International Drive, Orlando, FL 32819",I-Drive/Universal,"I-Drive/Universal, Orlando",-81.4510725,28.4676808,noise,100.0,Dollar($),random,No,nan,No,4.0,4.6,Dark Green,Excellent,2324.0
2793.5712300993955,5424232.804703251,Bahama Breeze Island Grille,216.0,Orlando,"8849 International Drive, Orlando, FL 32819",I-Drive/Universal,"I-Drive/Universal, Orlando",-81.471526,28.437065,Caribbean,45.0,Dollar($),No,No,noise,No,3.0,0.22033993675057564,Green,Very Good,910.0
357.0,17059541.0,Maggiano's Little Italy,167.69645969059363,Orlando,"9101 International Drive,Orlando, FL 32819",I-Drive/Universal,random,91.7606785176942,28.433235,Italian,50.0,Dollar($),No,No,No,noise,4.0,1.8155484621279077,unknown,Very Good,886.0
2631.4398376431695,9194322.42622845,Hawkers Asian Street Fare,216.0,Orlando,nan,Mills 50,"Mills 50, Orlando",-81.364347,28.560505,"Asian, Thai",35.0,Dollar($),nan,noise,No,No,3.0,4.6,Dark Green,Excellent,1293.0
7039.734144767774,17064405.0,Tako Cheena by Pom Pom,216.0,nan,unknown,Mills 50,random,-81.364547,28.557845,random,10.0,Dollar($),No,nan,random,No,2.0932554234823018,4.4,Green,noise,570.0
360.0,17060516.0,Seasons 52 Fresh Grill,216.0,Orlando,"7700 West Sand Lake Road, Orlando, FL 32819",Restaurant Row,"Restaurant Row, Orlando",-81.487978,28.448175,American,60.0,Dollar($),No,No,nan,No,3.9430896732024427,4.4,Green,Very Good,1685.0
5033.6997626646225,17059012.0,Hollerbach's Willow Tree Cafí©,216.0,Orlando,"205 East 1st Street, Sanford, FL 32771",random,unknown,-81.266871,28.811653,German,40.0,Dollar($),No,No,noise,No,3.0,1.4099831839836114,Dark Green,Excellent,1699.0
362.0,17061296.0,Pom Pom's Teahouse and Sandwicheria,216.0,Orlando,nan,The Milk District,"The Milk District, Orlando",-81.351467,28.543571,unknown,25.0,Dollar($),No,No,No,unknown,2.0,4.142179343648726,Dark Green,Excellent,1457.0
363.0,9730174.096181853,noise,216.0,nan,"1236 Hempel Avenue,Gotha, FL 34786",Windermere,"Windermere, Orlando",-81.522987,28.527592,"American, BBQ, Sandwich",346946.36916616285,Dollar($),No,No,No,nan,3.0,4.9,Dark Green,Excellent,1252.0
364.0,17064031.0,Tibby's New Orleans Kitchen,216.0,Orlando,"2203 Aloma Avenue, Winter Park, FL 32792",Winter Park,noise,-81.322631,28.601088,Cajun,25.0,Dollar($),No,No,nan,No,2.0,4.7,Dark Green,Excellent,1412.0
365.0,17066603.0,The Coop,216.0,Orlando,"610 W Morse Boulevard, Winter Park, FL 32789",Winter Park,"Winter Park, Orlando",-81.357219,28.597366,nan,389679.56725907564,Dollar($),No,No,No,random,2.0,3.6,Yellow,Good,7428.7720999032645
366.0,17057797.0,Bosphorous Turkish Cuisine,216.0,Orlando,random,Winter Park,"Winter Park, Orlando",-81.3508344,28.5976271,"Mediterranean, Turkish",40.0,Dollar($),No,No,No,No,3.0,4.2,Green,unknown,568.0
367.0,17061253.0,Ethos Vegan Kitchen,170.6579360459032,Orlando,"601-B South New York Avenue, Winter Park, FL 32789",Winter Park,"Winter Park, Orlando",-81.352921,28.592857,nan,25.0,Dollar($),No,No,random,noise,2.0,4.4,Green,noise,2364.3299245708295
368.0,17059060.0,Hillstone,216.0,Orlando,unknown,Winter Park,"Winter Park, Orlando",129.91006749651467,44.20560389659664,,40.0,unknown,No,No,No,noise,1.7059201891716662,0.8779026831212615,noise,unknown,1158.0
369.0,17061231.0,random,216.0,noise,"565 W Fairbanks Avenue, Winter Park, FL 32789",Winter Park,unknown,-81.356024,28.593297,Pub Food,40.0,Dollar($),No,No,No,No,3.0,4.4,noise,Very Good,1998.0
370.0,16613649.0,Vivo Bar and Grill,14.0,Palm Cove,"49 Williams Esplanade, Palm Cove, QLD",Palm Cove,"Palm Cove, Palm Cove",145.670768,-16.748083,"Mediterranean, Seafood",30.0,Dollar($),No,No,No,unknown,1.1515407080864777,4.4,Green,Very Good,381.0
371.0,18255631.0,Pier 70,14.0,nan,"70 The Esplanade, Paynesville",Paynesville,"Paynesville, Paynesville",147.7227832,-37.9194154,Modern Australian,310265.0580453706,Dollar($),No,unknown,No,No,3.476326135461361,2.6,random,Average,16.0
4301.094737949787,16608483.0,DiVine,14.0,Penola,"39 Church St, Penola, SA",noise,"Penola, Penola",140.837409,-37.379153,"Cafe, Coffee and Tea, Sandwich",20.0,Dollar($),No,No,No,noise,2.0,3.4,nan,Average,19.0
8699.610470586822,17580453.0,Cactus Flower Cafe Navarre,216.0,Pensacola,"8725 Ortega Park Dr, Navarre, FL 32566",Navarre,nan,-86.8573393,30.4025979,unknown,25.0,noise,random,No,random,No,3.5930635914114983,4.2,Green,nan,598.4302772094044
1686.7473803252758,17580142.0,McGuire's Irish Pub & Brewery,216.0,Pensacola,"600 E Gregory Street, Pensacola, FL 32502",nan,"Pensacola, Pensacola",-87.2027,30.4179,unknown,40.0,noise,No,No,No,No,3.0,4.9,Dark Green,Excellent,6757.887173461617
375.0,17580160.0,New Yorker Deli & Pizzeria,216.0,Pensacola,"3001 E Cervantes St, Pensacola, FL 32503",Pensacola,"Pensacola, Pensacola",-87.1819,30.4251,"Italian, Pizza, Sandwich",59745.19654522723,Dollar($),No,No,unknown,No,1.0,4.6,Dark Green,Excellent,792.0
376.0,17580349.0,Tu-Do Vietnamese Restaurant,157.64652392785078,Pensacola,unknown,Pensacola,"Pensacola, Pensacola",-87.2216,30.4982,"Asian, Vietnamese",642902.722078804,noise,No,No,random,No,1.0,4.354912969240295,Dark Green,nan,828.0
377.0,17580412.0,noise,216.0,nan,"311 N 9th Avenue, Pensacola, FL 32502",Pensacola,"Pensacola, Pensacola",-87.205855,30.417318,"Italian, Pizza, Seafood",40.0,Dollar($),No,No,No,No,2.365179208283152,3.7,Yellow,Good,292.0
378.0,17580590.0,Jaco's Bayfront Bar and Grille,40.14783759739726,Pensacola,"997 South Palafox, Pensacola, FL 32502",nan,"Pensacola, Pensacola",-32.90128246722519,30.403034,noise,25.0,Dollar($),No,No,No,random,2.0,3.9,Yellow,random,502.0
379.0,7035177.505638417,The Tin Cow,145.61494025774587,Pensacola,noise,random,nan,-87.2150874,30.4116106,"Burger, Bar Food",25.0,Dollar($),No,No,No,No,2.0,3.7,Yellow,random,559.0
380.0,17579928.0,Cactus Flower Cafe,216.0,Pensacola,random,Pensacola,unknown,-87.2080932,30.4473322,noise,25.0,noise,No,No,random,No,2.0,4.2,Green,Very Good,1268.0
381.0,17579992.0,Dharma Blue,9.670659917581254,Pensacola,"300 S Alcaniz Street, Pensacola, FL 32502",Pensacola,"Pensacola, Pensacola",-74.20070751717594,30.4101,noise,106835.77009154206,Dollar($),No,No,No,noise,3.0,4.1,Green,Very Good,669.0
1424.8955768238668,17580030.0,Global Grill,216.0,Pensacola,unknown,Pensacola,"Pensacola, Pensacola",-87.2153054,30.411878,"European, International, Tapas",40.0,Dollar($),No,No,No,unknown,3.0,4.4,Green,noise,5941.136932611384
383.0,17580074.0,Ichiban,216.0,Pensacola,"5555 N Davis Hwy Ste I, Pensacola, FL 32503",nan,"Pensacola, Pensacola",-87.2252,30.4767,"Japanese, Sushi",25.0,Dollar($),No,No,No,No,2.0,3.0110390060681613,Green,nan,765.0
384.0,17580020.0,The Fish House,216.0,Pensacola,random,nan,"Pensacola, Pensacola",156.46846853216664,30.407358,"American, Seafood, Sushi",56342.96945266524,Dollar($),noise,No,No,No,2.646853518069182,4.0,random,nan,1270.0
385.0,17580350.0,noise,216.0,Pensacola,"4801 N 9th Ave, Pensacola, FL 32503",Pensacola,"Pensacola, Pensacola",-87.214,-4.722711693217846,"Italian, Mediterranean, Pizza",78189.04249144394,Dollar($),No,No,No,No,2.0,4.1,Green,Very Good,1092.4496514127623
386.0,17580408.0,Flounders Chowder House,216.0,unknown,unknown,Pensacola Beach,"Pensacola Beach, Pensacola",-87.143,30.3359,Seafood,40.0,Dollar($),No,noise,No,No,3.0,3.9,Yellow,Good,724.0
387.0,17579653.0,Hemingway's Island Grill,216.0,noise,"400 Quietwater Beach Rd, Pensacola Beach, FL 32561",Pensacola Beach,"Pensacola Beach, Pensacola",-87.142602,48.91666122417348,"Caribbean, Seafood, Steak",40.0,Dollar($),random,No,No,No,3.0,3.5,Yellow,unknown,479.0
388.0,17580476.0,Native Cafe,216.0,Pensacola,"45 A Via De Luna Dr, Pensacola Beach, FL 32561",random,unknown,23.706129674444043,30.334776,"Breakfast, Burger",648924.4830270383,Dollar($),No,No,No,No,2.0,4.2,nan,noise,591.0
6062.126661961769,17580422.0,Peg Leg Pete's,216.0,Pensacola,"1010 Fort Pickens Rd, Pensacola Beach, FL 32561",Pensacola Beach,nan,-87.164376,30.327864,"Burger, Sandwich, Seafood",231025.20386352605,Dollar($),No,No,No,No,3.0,4.3041247114447145,Green,Very Good,1408.0
390.0,17580539.0,nan,216.0,unknown,"400 Pensacola Beach Boulevard, Pensacola Beach, FL 32561",Pensacola Beach,"Pensacola Beach, Pensacola",40.0445977822462,30.34262,"Caribbean, Seafood",40.0,Dollar($),No,noise,No,No,3.0,4.3,Green,Very Good,905.0
391.0,17580511.0,Original Georgios Authentic Greek Food,216.0,Pensacola,random,Perdido Key,"Perdido Key, Pensacola",-87.4218962,30.3199824,Greek,10.0,Dollar($),No,No,unknown,nan,1.0,4.7,Dark Green,unknown,816.0
392.0,17580021.0,random,150.6874116784027,noise,"13486 Perdido Key Dr, Pensacola, FL 32507",random,"Perdido Key, Pensacola",-87.427707,-17.023836722387816,"Sandwich, Seafood, Cajun",40.0,Dollar($),No,No,nan,No,1.2599010934169201,4.4,Green,unknown,747.0
393.0,16604370.0,Mad Cowes Cafe,14.0,Phillip Island,"4/17 The Esplanade, Cowes, VIC",Phillip Island,"Phillip Island, Phillip Island",145.237813,-38.448307,"Breakfast, Coffee and Tea, Modern Australian",20.0,Dollar($),unknown,No,No,No,2.0,3.7,Yellow,Good,351.0
394.0,17582467.0,nan,76.92809999841162,Pocatello,random,Blackfoot,"Blackfoot, Pocatello",-112.3415,-35.113399531540026,"Burger, Fast Food",10.0,Dollar($),No,No,No,No,1.0,3.7,Yellow,Good,104.0
395.0,17582668.0,Texas Roadhouse,216.0,Pocatello,"560 Bullock Street, Pocatello, ID 83202",noise,noise,-112.461326,42.910518,"American, BBQ, Steak",45.0,Dollar($),No,No,No,No,3.0,3.5,Yellow,Good,83.0
5229.880514479357,17582498.0,Riverwalk Cafe,216.0,Pocatello,"695 E Main St, Lava Hot Springs, ID 83246",Lava Hot Springs,"Lava Hot Springs, Pocatello",-112.0132,42.62,noise,10.0,Dollar($),No,No,nan,No,1.0,3.6,Yellow,Good,91.0
497.01037563556577,17582499.0,Royal Hotel,216.0,Pocatello,random,Lava Hot Springs,"Lava Hot Springs, Pocatello",65.24376420668295,42.6192,"Pizza, Bar Food",0.0,Dollar($),No,No,No,noise,1.0,4.104195913138853,Yellow,Good,59.0
398.0,17582522.0,Buddy's Italian Restaurant,216.0,Pocatello,"626 E Lewis St, Pocatello, ID 83201",nan,"Pocatello, Pocatello",-112.4423,42.8661,"Italian, Pizza, Sandwich",40.0,nan,No,No,No,No,3.0,3.7,Yellow,Good,222.0
399.0,17582524.0,Butterburrs,216.0,Pocatello,"917 Yellowstone Avenue, Pocatello, ID 83201",Pocatello,"Pocatello, Pocatello",-112.4516,42.8919,random,30.0,unknown,noise,No,No,No,3.0,3.6,Yellow,Good,121.0
400.0,17582527.0,Chang Garden,216.0,Pocatello,"1000 Pocatello Creek Rd Ste W2, Pocatello, ID 83201",unknown,"Pocatello, Pocatello",-112.441,42.8928,Chinese,736433.6351294175,Dollar($),random,No,No,No,1.0,3.5,Yellow,Good,93.0
3290.598281241331,16782112.112169623,Fifth Street Bagelry,216.0,random,"559 S 5TH Ave, Pocatello, ID 83201",Pocatello,"Pocatello, Pocatello",-112.4397,10.27764299199064,"Coffee and Tea, Sandwich",10.0,Dollar($),random,No,nan,noise,1.0,3.8,Yellow,Good,9401.623499790265
402.0,17582558.0,Goody's Deli,216.0,Pocatello,random,Pocatello,"Pocatello, Pocatello",73.99591169871957,42.8604,"Pizza, Sandwich",10.0,nan,No,unknown,No,No,1.0,3.8,random,random,160.0
403.0,17582560.0,unknown,216.0,Pocatello,"314 N Main St, Pocatello, ID 83204",Pocatello,"Pocatello, Pocatello",-112.4524,42.8639,"American, Greek",25.0,Dollar($),No,No,No,No,3.8627614087443374,3.7,noise,Good,5551.923215799896
404.0,17582677.0,Outer Limits Fun Zone,216.0,Pocatello,"1800 Garrett Way, Pocatello, ID 83201",Pocatello,"Pocatello, Pocatello",-112.459988,20.824397768084765,"Burger, Pizza, Sandwich",10.0,Dollar($),No,nan,No,unknown,1.0,0.529543684505573,Yellow,Good,57.0
7199.969830775243,17582670.0,Portneuf Valley Brewing,216.0,Pocatello,"615 South 1st Avenue, ID 83201",Pocatello,"Pocatello, Pocatello",-112.443213,42.860024,"American, Pizza",25.0,random,No,No,No,No,2.0,3.7,Yellow,Good,191.0
406.0,17582625.0,random,216.0,Pocatello,"1400 Bench Rd, Pocatello, ID 83201",Pocatello,"Pocatello, Pocatello",-112.432,42.9012,"American, Seafood, Steak",40.0,Dollar($),noise,noise,No,No,1.1863772285336371,3.6,Yellow,Good,85.0
407.0,17582627.0,random,216.0,Pocatello,"961 Hiline Rd, Pocatello, ID 83201",Pocatello,"Pocatello, Pocatello",-59.25021315943283,42.8942,random,0.0,unknown,noise,No,nan,unknown,1.0,4.0756383950787045,Yellow,Good,108.0
408.0,14939596.825597877,Sushi Family,216.0,unknown,"415 Yellowstone Ave, Pocatello, ID 83201",Pocatello,"Pocatello, Pocatello",-112.452013,42.88245,"Asian, Sushi, Vegetarian",25.0,Dollar($),noise,No,nan,No,2.0,3.6,Yellow,Good,190.11231384510518
409.0,17582664.0,Taste of India Nepal,216.0,Pocatello,"330 N Main Street, Pocatello, ID 83204",Pocatello,unknown,-112.45253,42.863969,"Indian, International, Vegetarian",25.0,noise,No,No,No,No,2.0,0.7615750140499351,Yellow,Good,9971.598337892852
410.0,17582682.0,Thai Paradise,135.79891306624623,Pocatello,"140 S. Main, Pocatello, ID 83204",Pocatello,"Pocatello, Pocatello",-112.450106,42.861871,unknown,588382.7244130076,Dollar($),No,No,No,No,2.0,3.7,Yellow,Good,162.0
6592.326766771996,17582669.0,The Bridge,216.0,Pocatello,"815 S 1st Street, Pocatello, ID 83201",Pocatello,"Pocatello, Pocatello",-112.4413856,42.8585987,New American,40.0,Dollar($),No,No,No,No,3.0,3.6,Yellow,Good,144.0
412.0,18491935.0,Nosh Mahal,216.0,Pocatello,"303 E Alameda Road, ID 83201",Pocatello,"Pocatello, Pocatello",-112.44853,42.891174,"Indian, Persian",232376.64417600134,Dollar($),No,No,No,No,3.0004563886069864,0.0,unknown,Not rated,1.0
413.0,9332196.41911024,El Herradero,216.0,Pocatello,"123 Jefferson Ave, Pocatello, ID 83201",Pocatello,"Pocatello, Pocatello",-131.5143537293744,42.8774,Mexican,10.0,nan,No,No,No,No,1.0,4.1,Green,Very Good,8028.154743899392
414.0,17629582.0,Barrett Junction Cafe,216.0,random,nan,Potrero,"Potrero, Potrero",-116.704731,32.613431,noise,25.0,Dollar($),No,noise,No,No,2.0,3.3,Orange,Average,9.0
415.0,17211719.0,Blue Point Grill,172.97235792127498,Princeton,"258 Nassau St, Princeton, NJ 08542",Princeton,"Princeton, Princeton",-30.970649878467256,40.352385,Seafood,70.0,Dollar($),noise,No,No,No,4.0,4.352701801520755,Green,Very Good,542.0
416.0,17144717.0,Giovanni's Shrimp Truck,216.0,nan,"56-505 Kamehameha Hwy, Kahuku, HI 96731",Kahuku,"Kahuku, Rest of Hawaii",-157.948486,47.03178757289672,noise,25.0,Dollar($),No,No,No,No,2.0,4.5,noise,noise,3120.463935441547
417.0,17143970.0,Kona Brewing Company,216.0,Rest of Hawaii,"75-5629 Kuakini Highway, Kailua Kona, HI 96740",Kailua Kona,"Kailua Kona, Rest of Hawaii",-155.997362,19.642752,"American, Pizza, Bar Food",35.0,Dollar($),No,No,No,No,3.91228644081764,4.7,Dark Green,Excellent,764.0
418.0,17142698.0,Leonard's Bakery,216.0,Rest of Hawaii,"933 Kapahulu Ave, Honolulu, HI 96816",Kaimuki,"Kaimuki, Rest of Hawaii",-157.813432,21.284586,,10.0,Dollar($),No,No,No,No,1.0,0.5950486584198754,Dark Green,Excellent,707.0
419.0,17144991.0,Coconuts Fish Cafe,216.0,Rest of Hawaii,unknown,Kihei,"Kihei, Rest of Hawaii",-156.455284,20.748838,Seafood,30.0,Dollar($),random,No,noise,unknown,3.0,4.5,Dark Green,Excellent,487.0
420.0,17142519.0,nan,216.0,Rest of Hawaii,"1945 S Kihei Road, Kihei, HI 96753",Kihei,"Kihei, Rest of Hawaii",-156.451847,25.459169324606194,"American, Hawaiian",10.0,unknown,No,No,No,No,1.0,4.5,Dark Green,Excellent,9224.800800276827
421.0,17145408.0,Monkeypod Kitchen by Merriman,216.0,Rest of Hawaii,"10 Wailea Gateway Place, Unit B-201 Kihei, Hawaii, HI 96753",Kihei,"Kihei, Rest of Hawaii",-156.4309473,20.6883746,nan,40.0,noise,No,No,No,No,3.0,4.2,Green,Very Good,485.0
422.0,17143336.0,Sansei Seafood Restaurant & Sushi Bar,216.0,Rest of Hawaii,"1881 S Kihei Rd, Kihei, HI 96753",Kihei,"Kihei, Rest of Hawaii",-156.452556,-4.467294213346108,nan,40.0,Dollar($),noise,No,No,No,3.0,4.2,Green,unknown,807.0
423.0,17145077.0,Star Noodle,156.84178933466188,Rest of Hawaii,"286 Kupuohi St, Lahaina, HI 96761",Lahaina,"Lahaina, Rest of Hawaii",-156.674835,20.885226,Asian,10.0,Dollar($),No,No,No,unknown,1.0,4.6,Dark Green,Excellent,5889.803482343106
424.0,17141447.0,Aloha Mixed Plate,216.0,Rest of Hawaii,random,Lahaina,"Lahaina, Rest of Hawaii",-156.684967,20.886564,"Asian, Breakfast, Hawaiian",529924.1321791088,Dollar($),No,No,No,No,1.0,4.6003833001344585,noise,Very Good,874.0
425.0,17142096.0,Gazebo,216.0,Rest of Hawaii,noise,Lahaina,"Lahaina, Rest of Hawaii",27.8348931962432,20.992316,"Breakfast, Burger",25.0,Dollar($),No,No,No,No,2.0,4.4,Green,Very Good,552.0
